stop_id,stop_name,stop_lat,stop_lon
21673,Miyase İnceer İlkokulu-Ortaokulu,38.6026304850392,27.0875496771342
21675,Menemen Devlet Hastanesi,38.606738,27.086593
30323,Bornova Kültür Merkezi,38.4629564450673,27.210344848693
30325,Bornova İzsu,38.4639,27.2139
31274,Hükümet Konağı,38.4655,27.2187
13559,Hıdırlık,38.1751006368773,26.8293003314511
13561,Tepecik Caddesi,38.181103,26.83381
13563,Kuşadası Caddesi,38.1876,26.8354
10945,Şehit Piyade Uzman Çavuş Ayhan Elmacı,38.2429,27.129
10957,Ege,38.2378,27.1352
11141,Eşen Mahallesi,38.1725008782302,27.0959657777768
11133,Deli Ömerli,38.1666,27.0878
11157,Gümüldür Kavşak,38.0611,27.0132
51395,Söğüt,38.0601398534286,27.0141700617119
11075,Ürkmez Sağlık Ocağı,38.078123,26.956531
11077,Begonya,38.0782,26.9522
11561,Doğanbey Muhtarlık,38.0680413653672,26.9038735635831
11095,Ar Konutları,38.0672,26.9004
11059,Gümüldür Lisesi,38.0705,27.0003
11061,DSİ Kamp,38.0733209923474,26.9951783004348
11081,Pansiyon,38.0779002640856,26.9430983784702
10685,Ürkmez Kumsal,38.0773256543153,26.9399799075885
13535,Eksen Deresi,38.064220408943,26.8779405034542
13545,Doğanbey Payamlı,38.0871656401566,26.8601406593705
51496,Seferihisar Eczane,38.1956,26.8444
50631,İkinci Köprü,38.309018,26.685342
50731,İçmeler,38.309339,26.681203
50641,Urla Bölge Trafik,38.3161003667994,26.6575028928843
50655,Yüksek Teknoloji,38.3208950315382,26.6466721911234
51569,Eski Mordoğan,38.5248945335934,26.6136333963681
51571,Mordoğan Ardıç,38.5269,26.6119
51858,Ardıç,38.5304505022447,26.6069584234348
51573,Balıkçı Kulesi,38.531863,26.601737
51978,Beylik Bağı,38.5386864567701,26.5976704559305
12964,Havacılık Meslek Yüksek Okulu,38.3015,27.1653
12962,Karakol,38.3036,27.1631
13002,Mimar Kemalettin Tekstil Meslek Lisesi,38.3049,27.1589
50436,Seferihisar İMKB Mesleki ve Teknik Anadolu Lisesi,38.2304005469168,26.8287010480633
50454,Ulamış Giriş,38.2407,26.8305
50432,Ulamış Yaren,38.244135,26.831605
50428,Ufuk Köy,38.253954,26.832868
50420,Bademler,38.2786534527454,26.839966442911
50412,Çamtepe Besicilik,38.295713,26.85221
50404,Çamlı Villaları,38.3231,26.8628
50082,Yemişçi,38.378358,26.895658
50080,Kirazlı,38.3788,26.9013
50074,Baydar,38.380555,26.91023
50070,Maltepe,38.3836,26.9206
50062,Çeşme,38.3845,26.9395
50052,Lojmanlar,38.394,26.9722
50044,Narlıdere Belediye,38.396286,26.994762
50004,Fahrettin Altay Meydan 9 ,38.397100436864,27.0686007424306
50011,Balçova Kahveler,38.394948,27.056005
50015,İş Bankası Evleri,38.3944144121655,27.0486058349023
50017,Teleferik,38.3944,27.0459
50021,Dörtyol,38.3944,27.0388
50023,Dokuz Eylül,38.393296,27.0331
50029,Balcı,38.3936,27.0193
50035,Uludağ,38.3943,27.0086
50041,Şehitlik,38.396091,26.998452
50049,Pertev Bey,38.3956,26.9819
50057,İstihkam,38.3898475843432,26.9538068668207
50394,Çardak Kahve,38.3496,26.8669
50390,Karaoğlu,38.3539,26.8689
50388,Çiçek Mezatı,38.3571003193806,26.8709016880053
50072,Balıkçı Kahvesi,38.3826,26.9176
50038,Köprübaşı,38.3944,27.005
50036,Uludağ,38.394271,27.007738
50034,Narlıdere Cami,38.394,27.012
50517,Seferihisar Son Durak,38.201507450241,26.8462971750251
50518,Seferihisar Konutlar,38.199334,26.846371
50452,Seferihisar Devlet Hastanesi,38.1968005709516,26.8453005714446
51497,Seferihisar Pazaryeri,38.1958,26.8418
50447,Seferihisar PTT,38.1950577895053,26.8401760467392
51156,İhsaniye,38.2757288236857,26.8086110632634
51154,İhsaniye yolu,38.2724004838327,26.8122015389142
51152,At Çiftliği,38.2692,26.8184
51150,Bademler Çıkış,38.2733,26.828
51148,Bademler Park,38.273404,26.829113
51492,Seferihisar Bahçe,38.1917,26.8431
51490,Kocaçay,38.1904,26.8399
51952,Doğan,38.1834486112388,26.8350824300446
13558,Tepecik Caddesi,38.1805646200579,26.8330363968551
13546,Güneşlikent,38.140684,26.83464
11092,Doğanbey Çıkış,38.0607,26.8912
11090,Sakızağacı,38.063906,26.894035
11084,Ozanköy,38.071715,26.919898
11082,Yıldız,38.07273,26.924045
11072,Begonya,38.077998668736,26.9524469804812
11070,Ürkmez Sağlık Ocağı,38.0778,26.9563
11060,Hacı Sadık Cami,38.0763,26.9867
11118,Ovacık,38.0748,26.9922
11096,Bahçecik,38.067257,27.015516
11154,Gümüldür Pazaryeri,38.0698998703716,27.0162982548136
11783,Sera,38.192566,27.527887
11785,Benzinlik,38.192591,27.53474
11787,Mezarlık,38.192586,27.538254
11759,Yakapınar Giriş,38.1925629657104,27.5461608463639
11761,Canlı Kahveler,38.19239,27.54992
11753,Canlı Park,38.192038,27.552514
11765,Canlı Çıkış,38.1919789429845,27.5591259035597
11789,Canlı Çınar,38.191782924922,27.5620784274895
11767,Yeşilova Köy Yolu,38.193776,27.573843
11769,Elifli,38.195282,27.581739
15456,Elifli Sera,38.1952109751953,27.5878310113986
11771,Furunlu Tulumba,38.1966,27.59659
11773,Furunlu Yolu,38.20079,27.603534
11775,Furunlu Yedikavak,38.202908,27.608588
11777,Karahalilli,38.205629,27.614665
51558,Mordoğan İğdealtı,38.5100375912008,26.6165824372386
51556,Mordoğan Stad,38.5061106048064,26.6163734543458
51554,Kütlücek,38.5010356224999,26.6161214752536
51552,Çatalkaya,38.4959,26.6159
50692,Nar,38.420752,26.586412
50682,Market,38.4175,26.5897
50652,Manolya,38.419366,26.592595
50690,Pura,38.4149,26.5992
50650,Çardak Kamp,38.41031,26.61224
14959,Kurucaova Tarla,38.1728992939648,28.0874046221505
14915,Kurucuova Benzinlik,38.1699238241742,28.0963031687952
14961,Kaymakçı Üçyol,38.1677851997429,28.107660935036
14963,Kaymakçı Zafer,38.166499167494,28.1112050018523
14965,Şehit Hasan Uyar Parkı,38.1651991373019,28.1153050745083
14967,Kaymakçı Sanayi,38.1650991531426,28.1191051112872
14971,Ödemiş Cezaevi,38.1621460874567,28.1291412858838
15123,Medeniyet,38.1609091327842,28.134629743649
15125,Çaylı Yem Sokak,38.1609363703174,28.1423999629812
15127,Orhangazi,38.1638972749217,28.1501094265799
15984,Orhangazi Yolu,38.1814591177861,28.1683810518781
15129,Köfündere,38.1847282829531,28.1725869843822
15460,Köfündere Çiftlik,38.1895605174677,28.1772398693575
15121,Yağlar Çıkış,38.1934157554511,28.1873368248741
10946,Şehit Piyade Uzman Çavuş Ayhan Elmacı,38.2431,27.1291
11261,Gölcükler Adnan Ocay Ortaokulu,38.2591031124092,27.1445193351642
11265,Gölcükler Sera,38.26131,27.14759
10714,Menderes Anadolu Lisesi,38.2583072100165,27.1305608252013
10712,Menderes Park,38.261,27.1303
10807,Sekseninci Yıl Cumhuriyet Parkı,38.238,27.2804
10825,Havuzlu,38.236101,27.288616
10805,Tevfik Fikret,38.234585,27.291003
10813,Bahçelievler,38.2325,27.294
10817,Albatros,38.2278,27.3028
10819,Ventola,38.22666,27.305161
10821,Yazıbaşı,38.2238,27.3109
10683,Yeni Kent,38.221101,27.316727
10827,Namet,38.2199006191797,27.3185532020562
10907,Bayraktar,38.2186,27.3212
10833,Kuşcuburun Barbaros Ortaokulu.,38.2145995533842,27.3295002081554
10835,Yüksek Kahve,38.2134,27.3315
10837,Kuşçuburun,38.212287525949,27.3329902097055
10841,Reysaş,38.2048,27.3382
22781,Yeni Şakran  Merkez,38.8882,27.0665
22783,Yeni Şakran Yol Ayrımı,38.8943515810069,27.0648713708882
23690,Deliktaş Şehit Cengiz Topel Ortaokulu,38.9887535613166,26.9263603481403
23692,Deliktaş Dörtyol,38.9854035693733,26.923596386256
22833,Dikili Hastane,39.071219,26.888456
22835,Bülent Ecevit Meydanı,39.0755310349082,26.8903388325344
12976,Sarnıç Sağlık Ocağı,38.2936,27.1739
12974,Sardunya,38.2935,27.1718
21567,Umut,38.547143,27.05093
21389,Eski Yol,38.5405,27.034
21391,Kargılar,38.543936,27.034745
22521,Ulukent Mezarlık,38.544727,27.043201
22523,Çocuk Bahçesi,38.549353,27.044177
21532,Centaş,38.5596,27.0528
21530,Cansu Sitesi,38.5581,27.0499
21687,Menemen Devlet Hastanesi Acil,38.607545,27.08633
31280,Rektörlük,38.4624008701335,27.2192998461112
31282,Suphi Koyuncu,38.4624,27.2248
13565,İzmir Caddesi,38.1919395999121,26.8343745508317
13567,Sığacık Yol Ayrımı,38.1957016014784,26.8343066349421
10959,Altın,38.2315,27.1362
11135,Santral,38.1498,27.0778
11053,Meryem  Ana,38.0626,27.0093
11393,Kamp,38.0783110559068,26.9501033170771
10915,Seferihisar Belediyesi Şantiye,38.065896,26.896019
11083,Ürkmez Jandarma,38.0764713011796,26.9351603518568
13549,Güneşlikent,38.1409387343456,26.8347081847827
50519,Seferihisar Konutlar,38.199376,26.84651
50657,Balıkçı,38.328806,26.644127
50659,Gülbahçe,38.3321,26.6435
50661,Çardak,38.336223,26.644275
51577,Eğlenhoca,38.5511077113595,26.5807199459235
51545,Kaynarpınar Huzur,38.558095,26.569551
51581,Kaynarpınar,38.5623,26.5663
12960,Hava Teknik Okulu,38.3077,27.1568
13006,Sarnıç Dere,38.3101002969076,27.1534004477515
50068,Pina,38.3836802853271,26.9263941890691
50042,Şehitlik,38.3957983626637,26.9990310685426
50043,Narlıdere Belediye,38.3964,26.9958
50386,Benzin İstasyonu,38.36055,26.872725
50066,Liman Reis,38.3831,26.9302
50032,Narlıdere İtfaiye,38.3937203792204,27.0164619848551
50030,Balcı,38.3932,27.0204
50449,Seferihisar Eczane,38.1953220030501,26.8438942737887
51494,Seferihisar İtfaiye,38.1935,26.8448
51849,Uysal,38.2723104706575,26.8306414404618
51850,Davulcu Deresi,38.2703634716825,26.8338164080058
51851,İncirliboğaz,38.2738244640861,26.835787426249
50491,Bademler Giriş,38.2755004604901,26.8367014349821
51488,Seferihisar Semt Garajı,38.1900713259251,26.8376708294378
13556,Hıdırlık,38.1750470497854,26.8289338964323
13544,Haritacılar Sitesi,38.1307,26.8377
10916,Seferihisar Belediyesi Şantiye,38.065621,26.895999
11078,Fırın,38.0757,26.9324
11068,Ürkmez Belediyesi,38.0786,26.9615
11056,DSİ Kamp,38.073499995818,26.9945983034759
11152,Gümüldür Meydan 2,38.0736,27.0181
11779,Çiçekçiler,38.208508,27.623881
15638,ÇİKOOP,38.2121682726975,27.625492055991
15639,Bayındır Zeytin,38.2151053263006,27.6252400319419
51546,Kaynarpınar Huzur,38.558282,26.569083
51578,Eğlenhoca,38.5510783827083,26.5806265234887
51576,Mordoğan Kayalık,38.5405,26.5947
51550,Mordoğan Çakıl,38.4928,26.6155
51548,Mordoğan Kayacık,38.4840566852466,26.6170155220957
51622,Manal,38.475237,26.612232
51456,Kocabuk,38.402421,26.615799
50648,Çiftlik,38.39153,26.62356
50680,Şehit,38.3846054585516,26.626398050659
15133,Bahçe,38.2047623465521,28.2013935578975
15135,Arkacılar,38.2073928291865,28.2022352394441
15137,Arkacılar Bulut,38.2111726363071,28.203840361388
16005,Değirmenönü,38.2151618279492,28.2066022461798
15141,Kiraz İlçe Tarım  Müdürlüğü,38.2219460996251,28.2055620110628
15143,Atatürk İlkokulu,38.2247332016023,28.2042229089053
15145,Kiraz Yeni Mahalle Cami,38.2273022932067,28.2028038138811
50670,Meryem Sitesi,38.363653,26.64464
50668,Öğretmenler,38.359144,26.644159
50730,İçmeler,38.309048,26.681175
50630,İkinci Köprü,38.3088,26.6854
50636,Çardak,38.308744,26.688669
50628,İzsu,38.3083,26.694
50061, Didem Işıklı İlkokulu,38.3837143176582,26.9354533882498
50063,Liman Reis,38.3832,26.9302
10944,Seydiköy,38.244413,27.126648
11271,Oğlananası Yol Ayrımı,38.2615,27.1519
10951,Menderes Adliye Sarayı,38.2614,27.127
10845,Temel,38.191,27.3474
10847,Çapak Yolu,38.1875,27.3514
15835,Torba Kent,38.182196,27.353793
10649,Torbalı Devlet Hastanesi,38.176407,27.358611
11745,Ekoten,38.1743152313493,27.3710699090144
16029,Mermer Fabrikası,38.1740450143635,27.384872263045
15157,Aslanlar  Yol Ayrımı,38.1740965499694,27.4098164965318
11738,Arıkbaşı Kahveler,38.1821698820416,27.4922716566897
11750,Arıkbaşı Akçam,38.1826807681352,27.4953983367025
11747,Dede Dağı,38.184366,27.501598
15488,Örentepe Yolu,38.1898419613419,27.5146957281759
22785,Demirkent,38.9163,27.062
22635,İncirlik,38.9184052294922,27.0620053190488
23694,Deliktaş Son Durak,38.981619582403,26.9218314241288
22837,Dikili Lise,39.0762,26.8916
22839,Burmalı Çeşme,39.077786,26.894353
21459,Ulukent Gar,38.546946,27.035865
22525,Egekent 2 Sağlık Ocağı,38.5531,27.0464
21528,Ege,38.5569,27.0483
21695,Papatya,38.597811,27.086964
21691,Nergis,38.59967,27.087615
30305,Çamkıran,38.4591,27.1918
30317,Mustafa Kemal Anadolu Lisesi,38.4601007937864,27.1958999664081
30319,Çağdaş,38.4609,27.2015
13557,Akarca,38.1642088393647,26.8265474048458
51953,Alp,38.1668736573181,26.8261392185527
51946,İva,38.1723096455254,26.8274582967836
10933,Menderes Nikah Sarayı,38.2464000904073,27.1249003059735
10943,Seydiköy,38.2447,27.1259
11139,Şaşal Çıkış,38.1779,27.1093
11109,Baraj,38.174613,27.101116
11155,Gümüldür Pazaryeri,38.0699998712082,27.0161982566063
11057,Bahçecik,38.067137,27.015267
11071,İZDER,38.0800001481813,26.9672984183692
11073,Ürkmez Belediyesi,38.0788,26.961
11093,Çiçek Tatil Sitesi,38.0698,26.9108
11121,Sahilkent,38.068878,26.907417
11055,Tıp Merkezi,38.0663,27.0053
11079,Huzur Sitesi,38.0783002479846,26.9464983857396
11101,Doğanbey,38.0591,26.8879
13543,Ömür Beldesi,38.0604,26.8785
51491,Seferihisar Bahçe,38.1914,26.8428
51493,Seferihisar İtfaiye,38.1935,26.8449
50625,Sefa,38.323795,26.725379
50639,Dilek,38.3217,26.7171
50627,Benzinlik,38.318808,26.710353
50637,Torasan Mahallesi,38.317207,26.706705
51860,Urla Villalar,38.309500405632,26.6982925443998
51557,Mordoğan İğdealtı,38.5106265895063,26.6168104330149
51559,Mordoğan Zeytin,38.514295,26.617012
51561,Mordoğan Orkide,38.515162,26.620104
51563,Mordoğan Beyaz,38.5174,26.6226
12972,Sarnıç Belediye Garajı,38.2943,27.1697
12970,Bayrak,38.2956,27.1692
12968,Sarnıç Meydan,38.2975,27.1683
50506,Barış Selçuk Parkı,38.199,26.8339
50442,Esentepe,38.212564,26.829121
52010,Ulamış Ortaokulu,38.24820851017,26.8337032086858
50422,Bademler Benzin İstasyonu,38.2744,26.8381
50414,Çamtepe Eskicioğlu,38.290257,26.850012
50406,Çamlı Papatya,38.317467,26.860403
50380,Seferihisar Kavşak,38.374556,26.875626
50092,Altmışıncı Yıl Anadolu Lisesi,38.3762002930082,26.8791016869974
50088,Briketçi,38.3775,26.8884
50076,Şahin,38.38,26.9074
50064, Didem Işıklı İlkokulu,38.3836003179235,26.93570138683
50054,Subay Gazinosu,38.3926,26.9642
50016,Teleferik,38.394068,27.046716
50012,Molla Kuyusu,38.3938840274841,27.0532014743244
50008,Beyaz,38.396211,27.061614
51923,Fahrettin Altay Aktarma Merkezi,38.3983964354781,27.0664257505685
50027,Güzel Sanatlar Fakültesi,38.3929004950328,27.0240009824884
50033,Narlıdere Cami,38.3942,27.0114
50047,İstihkam Okulu,38.396,26.9857
50053,Subay Gazinosu,38.3927,26.9643
50398,Köşem Market,38.336387,26.863233
50396,Yelki,38.3419,26.8639
50124,Karaca,38.3795,26.9048
51170,Azmak Yol Ayrımı,38.245589,26.811055
51168,Tarım  Koop,38.2551,26.8069
51166,Turgut Meydan,38.2586,26.8073
51164,Turgut Mezarlık,38.2595870311126,26.808019256428
13562,İzmir Caddesi,38.190936,26.834332
13560,Kuşadası Caddesi,38.1874006050772,26.8352004850881
13550,Yenikent,38.1588,26.8298
13548,Kemerkaya Evleri,38.1540362053259,26.8326322174809
11102,Doğanbey,38.0589,26.8881
11294,Karakoç Çayı,38.0704,26.914
11074,Pansiyon,38.0775,26.9421
11392,Kamp,38.0780498123913,26.9501361296016
10958,Altın,38.2314,27.1365
10956,Ege,38.2379,27.1355
15536,Fesleğen,38.2575021096556,27.1416053329422
11250,Menderes Sağlık Ocağı,38.2571,27.1308
10667,Gaziemir Alt Geçidi,38.3247,27.1366
10669,Çağdaş Eğitim,38.3209,27.1376
10671,Gaziemir İlçe Emniyet,38.3167,27.1404
10673,Sarnıç Alt Geçidi,38.3113944930973,27.1421253867396
10675,Emlak Bankası Evleri,38.309092,27.142331
10677,Seçkinler Sitesi,38.3061,27.1415
15919,Havalimanı,38.2945832464338,27.1410944493469
15921,Keresteciler Sitesi,38.288544,27.143275
15923,Mobilyacılar,38.282624,27.145862
15954,Benzinlik,38.27517,27.151495
15925,Aydın,38.27333,27.152882
15427,Yeni Mahalle Altyol,38.272861,27.178544
15429,Ormancı Altyol,38.274803,27.1812
15431,Kısıkköy Altyol,38.277114,27.187725
22777,Yeni Şakran Giriş,38.880699660781,27.0688974561875
22779,Üst Geçit,38.8843416384237,27.0675824347943
22813,Deliktaş,38.9892,26.9532
23688,Deliktaş Bakkal,38.9904115751789,26.9336033051853
23687,Deliktaş Meydan,38.9907775644333,26.9306833144026
22831,Dikili Çocuk Bahçesi,39.067317,26.886067
23543,Dikili Liman,39.0694700613451,26.8877458791619
12984,Muhtarlık,38.2985,27.1783
12982,Çarşı,38.297883,27.175502
12980,Bisikletçi,38.2983,27.1729
21510,Ulukent Ortaokulu,38.538513,27.038991
21520,9 Eylül Muhtarlık,38.5386,27.0356
21365,Simge Sitesi,38.542,27.0426
22533,Ulukent Üçyol,38.542914,27.045128
21534,Centaş 2 Sitesi,38.558481,27.055427
21564,Yamaç,38.5595,27.0554
30321,Bornova Stadı,38.4614,27.2054
50613,İzsu,38.3086,26.6938
50709,Çardak,38.309052,26.688359
51562,Mordoğan Meydan,38.518769,26.626065
51567,Mordoğan Frezya,38.5193,26.6159
12966,Adnan Menderes İlkokulu,38.2986020581646,27.1675705774192
50010,Balçova Kahveler,38.3947,27.0569
50378,Necdet Tokatlıoğlu,38.345616,26.865118
50126,Camcı,38.3813,26.9129
50040,Siteler,38.394928365678,27.002162053436
51939,Fahrettin Altay Aktarma Merkezi,38.3980274350452,27.0663427513831
51162,Çiftlik,38.2614005082119,26.8102014529862
51160,Bozyer,38.2656648553582,26.8139825156695
51155,İhsaniye yolu,38.2725004835561,26.8123015392147
11062,Orman Kampı,38.0768,26.982
11156,Gümüldür Kavşak,38.061,27.0134
13788,Osmanlar Son Durak,38.301512,27.558939
16133,Osmanlar Yolu,38.2923254111981,27.52333121498
13787,Çınardibi Çıkış,38.291908,27.520645
13785,Çınardibi Merkez,38.291545,27.518837
13783,Çınardibi Giriş,38.29077,27.516747
13777,Çınardibi Papatya,38.288656,27.516303
13781,Çınardibi Yolu,38.280727,27.519477
13778,Dernekli,38.26973,27.547099
13724,Kızılcaova Merkez,38.2062766460766,27.5126524181984
13773,Kızılcaova İstiklal,38.2025917779839,27.514754404212
13771,Kızılcaova Yolu,38.1998991111761,27.5167007035821
13769,Kızılcaova Yol Ayrımı,38.193574,27.521487
11757,Kızılcaova,38.1927059949876,27.5225357502083
10759,Çamlık,38.2801825267887,27.2000033636792
10785,Soğutma Fabrikası,38.2809,27.2039
10777,Dizdarlar,38.2801,27.2092
10783,Ayçiçeği,38.27195,27.231867
10787,Yeşilköy,38.269338,27.237935
10789,Mersinli Kahve Cami,38.2661,27.2423
10791,Oğlananası,38.2633000314169,27.2450002474577
10645,TRT,38.2539999601629,27.2579022282073
10795,Türkmenköy Jandarma,38.2500417270388,27.2639986467982
10797,Üç Pınarlar,38.2477230143541,27.2675013560352
10801,Egekent 4 Kavşak,38.2427,27.2728
10905,Ayrancılar Hastane,38.2407638493868,27.2745862059378
10803,Ayrancılar Mezarlık,38.2396,27.2763
12978,Sarnıç Trafo,38.2962,27.1732
40799,Lale,38.3729,27.172
40407,Çamlıpınar Yeni Son Durak,38.3688,27.1623
40795,Ekin,38.3735,27.1705
40232,Atlı Spor Kulübü,38.3819,27.1607
41318,Haralar,38.3804725170916,27.1580454077004
40140,Şirinyer Ertuğrul Gazi Anadolu Lisesi,38.3901,27.1413
23294,Saltukbey,39.1084920980388,27.1868805511674
23297,Bergama İZSU Şantiyesi,39.1110951042555,27.1904665282073
23295,Bergama Meslek Yüksek Okulu,39.1094011134064,27.1899945325201
23000,Yuvam,39.0995,27.1564
22984,Kurfallı,39.0179,27.0718
22982,Yenikent,39.0074,27.0635
22782,Üst Geçit,38.8823956489148,27.0680044479822
22764,Pınarcık  Yol Ayrımı,38.8441715345118,27.0122341201965
22844,Aliağa Organize Sanayi Yol Ayrımı,38.8393,27.002
22746,Aliağa Liman,38.804999533312,26.9771986888108
22744,Aliağa santral,38.800964,26.976667
51056,Sığacık Son Durak,38.1711000353359,26.7851379066378
51053,Bilimkent,38.1683143028214,26.783969462441
50698,Balıklıova,38.4343,26.588
50728,Balıklıova Gökkuşağı,38.431749,26.586934
50696,Karareis,38.4293159381456,26.584642214445
50694,Balıklıova Merkez,38.427579,26.583729
50686,Balıklıova,38.425328,26.583644
50684,Sağlık Ocağı,38.423,26.5843
51938,Fahrettin Altay Aktarma Merkezi,38.3982074355136,27.0665987500234
50013,Molla Kuyusu,38.3942,27.0515
40894,Tınaztepe Yerleşke Son Durak,38.3686535478807,27.2108092569504
40128,Mühendislik Fakültesi,38.3696,27.2079
40130,Mimarlık Fakültesi,38.3684,27.2066
20153,Osman Bey Parkı,38.4541,27.1178
20155,Tarık Dursun Kakınç,38.4520005733394,27.1155003848181
20157,Dokuz Eylül Dispanser,38.4504,27.1126
20159,Karşıyaka Yelken Kulübü,38.4503,27.1085
20161,Yunuslar,38.4509,27.106
20199,Şehit Diplomat Erdoğan Özen,38.452672,27.105261
20201,Metin Aşıkoğlu Ortaokulu,38.4543959222496,27.1064259419909
20207,Girne Bulvarı,38.461,27.1081
20209,Çayırcı,38.4647,27.109
20067,Ege Üniversitesi Karşıyaka Sağlık Yerleşkesi,38.4733005699889,27.1063003438819
20069,Serin Kuyu,38.4754469890133,27.1028595433542
20687,Daryol,38.484263,27.091446
20689,Hüseyin Tokatlı Parkı,38.4849435431643,27.09343835947
20707,Cumhuriyet,38.4796005670433,27.1036003298892
20688,Daryol,38.4843744332857,27.0913913693146
20684,Atatürk İlköğretim Okulu,38.4832,27.0946
20212,Çayırcı,38.4649,27.1088
20208,Girne Bulvarı,38.460889,27.107785
41307,Buca Oyak Sitesi,38.4035376534778,27.2008851896572
41218,Yahya Kemal Beyatlı,38.3979,27.2037
41212,Fabrikalar 1,38.3905,27.1966
41210,Adatepe Villaları,38.388296219684,27.1933263862523
41200,Hasan Ağa Bahçesi,38.3814,27.1795
10240,Kız Yurdu,38.41322,27.127212
41138,Mavi Köşe,38.4099,27.1605
40681,Düzlük,38.4069,27.1609
41135,Kasap,38.4090035948108,27.1617623240079
41139,Mavi Köşe,38.4098,27.1605
10581,İsmet Paşa Sağlık Ocağı,38.410443,27.159612
10579,Gürçeşme Cami,38.414,27.1608
10575,Ülkü Sineması,38.4186,27.1578
13352,Kemer Aktarma Merkezi,38.4215879490639,27.156695207182
10124,Çardak 2,38.4239945470502,27.1388195260945
10136,Şehit Fethibey,38.4240130194208,27.1326931003482
10363,Eşref Paşa Hastanesi,38.423294,27.160383
10367,Tepecik Doğum Hastanesi,38.4239006380788,27.1663002563048
10369,Yenişehir PTT,38.42475,27.170082
30123,Miralay Fethi Bey,38.4271880187101,27.1803134333542
30149,Kamil Tunca Bulvarı,38.433,27.1817
30151,Gürbüz,38.433,27.1865
30159,Kahveler,38.430265,27.199239
30489,Okçu,38.4353,27.2045
30491,Market,38.4360017669834,27.2082570293179
30501,Karacaoğlan,38.4421,27.2098
31831,Çocuk Parkı,38.4435,27.209
31837,Stad,38.4463,27.2051
30014,Bornova Metro,38.4587678548766,27.213824926173
30553,Yeşil Köşk,38.4579,27.2161
31842,Bahçeşehir Koleji,38.4454807728074,27.2008820165468
30500,Yeşilova Höyüğü,38.441092,27.209896
32247,Çocuk Parkı,38.4388707805794,27.2103700069335
30160,Kahveler,38.4304,27.1994
40659,Mursal Meydanı,38.4028133479692,27.1986896764456
41305,Buca Oyak Sitesi,38.4036009208492,27.201976116164
30158,Umut,38.431,27.1967
30154,Kartal,38.4324,27.1907
30150,Kamil Tunca Bulvarı,38.4330956957812,27.1825641514773
30124,Miralay Fethi Bey,38.4277730206033,27.1799505991297
12201,Narlık,38.3935063175801,27.1266157117396
12642,İlkkurşun Anadolu Lisesi,38.3819004764207,27.1218005405641
12671,Umut,38.3753,27.1216
12695,Günaltay Park,38.3742,27.118
12668,Umut,38.3751,27.1215
12666,Asiler,38.3757988669122,27.123037824491
12641,İlkkurşun Anadolu Lisesi,38.3820004769656,27.1221005392713
12637,Yerden Köprü,38.3829,27.1243
12562,Zincirlikuyu 2,38.39,27.126
12202,Narlık,38.3936,27.1268
10248,Altıntaş,38.407,27.124
10119,Kavaflar,38.4224,27.1365
10231,Kestelli,38.4156,27.1348
40141, Şirinyer Ertuğrul Gazi Anadolu Lisesi,38.3891338421491,27.1415368588718
40143,Akıncılar Cami,38.386,27.1436
40231,Atlı Spor Kulübü,38.3818113526194,27.1611051821549
40801,Çamlıkule Park,38.3719,27.1706
40404,Çamlı Pınar Muhtarlık,38.3695,27.1643
40796,Hanımeli,38.3729,27.1683
23293,Saltukbey,39.1086580974537,27.1869705504802
22998,Bergama Termal,39.0977949343723,27.1509377639486
22780,Yeni Şakran Giriş,38.8807299114121,27.0684597508142
22742,Gazeteci Hasan Tahsin,38.7965,26.9755
51051,Teos Villaları,38.1708095039048,26.7803499484786
50688,Pınar Evleri,38.381992,26.626986
50019,Hoca,38.3943,27.0424
32265,Ulucak Ardıç,38.4829665332978,27.3618789721633
40902,Teknopark,38.36733,27.2055
40898,Fen Edebiyat,38.368,27.2028
20203,Geçit 2,38.45759,27.107376
20211,Zafer Takı,38.467061,27.10977
20677,Geçit,38.478114,27.098692
20695,Surlar,38.483436,27.096464
20706,Saraç,38.4808,27.1021
20675,Halime Çavuş,38.4812945472755,27.095825063855
20206,Geçit 1,38.458502,27.107243
41216,Çay  Bahçesi,38.3978006450697,27.2062001895525
40138,Nato 1,38.3927,27.1406
40683,İsmet Paşa Muhtarlık,38.405961583733,27.1595923415996
10577,Gürçeşme,38.4166,27.1591
10358,Kemer,38.4224272156794,27.1489176747798
30127,Birinci Sanayi Sitesi,38.4301,27.1805
31843,Yassıtepe Höyüğü,38.4487436931485,27.2100091774883
40661,İzmir Tınaztepe Üniversitesi,38.4019006471806,27.2003001973956
30156,Çamdibi Esnaf Odası,38.4317,27.1936
30130,Taç Sanayi,38.4320006883152,27.1805001648222
32243,Ağır Bakım,38.4260606648851,27.1764202055354
10368,Yenişehir PTT,38.424802,27.16915
10362,Eşref Paşa Hastanesi,38.4234,27.16
13346,Kemer Aktarma Merkezi,38.42178,27.1569
10961,Şehit Polis Hüseyin Dalgılıç,38.2224,27.1368
11123,Akçaalan,38.2179,27.1381
10963,Ünal Soğuk Hava,38.2152,27.1388
12563,Zincirlikuyu 2,38.3901,27.126
12638,Hasan Ali Yücel Parkı,38.3802795282804,27.1241744564096
40237,Buca Halk Eğitim Merkezi,38.3821,27.1632
21390,Kargılar,38.5445,27.0346
21388,Eski Yol,38.540877,27.033754
12238,Türkeliler,38.3533,27.1006
12226,Eskiizmir İlkokulu,38.367,27.1081
12214,Bayram Kahya,38.3814,27.1131
12212,Karaselvi,38.3854,27.1152
12200,Kilimci Tepe,38.3962,27.1274
10242,Etnografya Müzesi,38.4146,27.1289
12063,Yağhaneler,38.403312,27.129349
12209,Karakuyu,38.3872,27.1159
12223,Hulusi Kentmen Parkı,38.370785,27.107772
12235,Asmalı,38.3571,27.1036
10365,Ziya Gökalp Ortaokulu,38.4232519166063,27.1631165563475
30039,Otogar Kavşağı,38.4268,27.2111
30649,Pınarbaşı Depolar,38.4313,27.2622
30671,Aziz Erol Güzelcan Mesleki ve Teknik Anadolu Lisesi ,38.4294724484135,27.2656819113419
50471,Tokatlıoğlu,38.342467,26.869198
50473,Belediye,38.342,26.8712
50475,Sağlık Ocağı,38.3412,26.8716
50568,Bardakçı,38.341701,26.770362
50566,Egeli,38.3474,26.7718
23604,Menemen Devlet Hastanesi Kavşak,38.6080984698394,27.0851846517257
31770,Evka 3 Aktarma Merkezi,38.465653,27.2287082149081
50508,Jandarma,38.203146,26.832594
11111,Sarıçay,38.229,27.1363
14445,Bulanık Su,38.1471,27.0749
11119,Ovacık,38.0749,26.9924
11087,Payamlı Muhtarlık,38.0741,26.9278
13551,Kemerkaya Evleri,38.1541006598716,26.8327999899825
50705,Gülbahçe Pazaryeri,38.338294,26.641945
50651,Dyo Kampı,38.3407,26.6416
50663,Saha,38.342883,26.641352
50645,Süreyya Sultan Evleri,38.347764,26.640461
51583,Akburun,38.5664593015789,26.5651325505148
51625,Aşağı Boyabağ,38.5704715669078,26.5626450859417
51585,Köseder Yol Ayrımı,38.5721222745534,26.5608285460361
13303,Sarnıç Aktarma Merkezi,38.3134213088271,27.1446704731284
50426,Yeşilkent,38.264786,26.834466
51941,Mermerci,38.3275153646748,26.8630486206483
50060,Halk Plajı,38.3851,26.9422
50050,Pertev Bey,38.3955003469533,26.9820011533679
50037,Köprübaşı,38.3945,27.0059
50418,Bademler Kooperatif,38.2819504457738,26.8420384573341
50384,Otoban Kavşağı,38.3662,26.8739
50382,Konutlar,38.3689,26.8745
50026,İzsu,38.3925,27.0264
51486,Seferihisar Saha,38.1896,26.8356
51146,Yeni Orman,38.2756,26.8351
51144,Tekkebaşı,38.2845,26.8284
52080,Çınar,38.2874302197102,26.8223906233883
51945,İva,38.1722766464646,26.8270762977773
13542,Doğanbey Payamlı,38.085131379557,26.8605103686405
11088,Ar Konutları,38.0672,26.9011
11076,Ürkmez Jandarma,38.076428,26.936424
11064,Stad,38.0786,26.972
11054,Gümüldür Lisesi,38.0707,26.9997
11148,Mandalin,38.0767528967413,27.0150703826849
51977,Beylik Bağı,38.5386454566721,26.59753745723
51574,Balıkçı Kulesi,38.5316,26.6024
52066,Siteler,38.5310304955756,26.6043674415198
51620,Mordoğan Yarımada,38.4722,26.606
51618,Mordoğan Sümbül,38.471762,26.59823
51640,Mordoğan Saklı Köy,38.471015,26.593283
51616,Ortadoğulular Sitesi,38.4706,26.5885
50678,Kaynaktur,38.379435,26.630106
50676,Pınar,38.3769791142771,26.6359433616647
50666,Kamp,38.3545,26.6411
50664,Gümüşkoy,38.350401,26.638798
50646,Süreyya Sultan Evleri,38.347703,26.640309
50059,Çeşme,38.3846,26.9395
50065,Pina,38.384,26.9254
50067,Maltepe,38.3838,26.9205
50069,Balıkçı Kahvesi,38.3829,26.9181
50071,Camcı,38.3816,26.9135
10932,Menderes Nikah Sarayı,38.2458000874356,27.1254003022864
11267,Amber,38.2623,27.1563
10947,Menderes Çevre Yolu,38.2543,27.1249
15932,Bayındır Giriş,38.214438,27.656736
14629,Bayındır Yağcı,38.2074811996451,27.6650842654909
14633,Yusuflu,38.196012,27.688271
14635,Yakacık,38.194891,27.692683
14637,Yakacık Papatya,38.1874987988082,27.7047016544907
14639,Buruncuk,38.1754305317928,27.7127318196691
22787,Ilıca,38.9276,27.0598
23693,Deliktaş Dörtyol,38.9854945693095,26.9237233850011
22841,Dikili Terminal İçi,39.07970562271,26.8955457713288
21549,Şelale,38.549206,27.048759
23309,Ulukent Aktarma Merkezi,38.5491223682542,27.0389793356862
22537,Egekent 2 Pazaryeri,38.555221,27.047839
21526,İrem Sitesi,38.557659,27.045549
21698,İstasyon Köprü,38.6052164547828,27.0805587025208
31287,Suphi Koyuncu,38.4633408877571,27.2240898188664
31289,Ata,38.4646,27.2232
50444,Öğretmen Evi,38.207193,26.831092
10917,Koruluk,38.2249,27.1365
14441,Arı Deresi,38.143508,27.070527
11097,Sakızağacı,38.0643,26.894
11063,Göçmen Konutları,38.0762,26.9889
11089,Yıldız,38.073,26.9237
50665,Gümüşkoy,38.35063,26.63897
50667,Kamp,38.3546,26.6413
50669,Öğretmenler,38.359492,26.6444
51856,Çevirlik,38.5972011659003,26.5465154687314
51589,Karaburun Esendere,38.6021,26.5398
51591,Ambarseki,38.6115,26.53
50410,Çamlı Solakoğlu,38.3084,26.8557
50025,Kantar,38.3927843890247,27.0268159363801
50031,Narlıdere İtfaiye,38.394,27.0148
50051,Lojmanlar,38.3942703377702,26.971071208814
50416,Hekim Köy,38.286693,26.846591
50464,Çiçek,38.3724,26.8753
50024,Kantar,38.3927283918878,27.0297509227125
50022,Dokuz Eylül,38.3932,27.0336
51142,Ovacık,38.2974,26.8064
51140,Palmiye,38.315547,26.766397
50944,Kuşçular yol ayrımı,38.3169,26.7624
50942,Sümbül,38.3182,26.7584
13536,Eksen Deresi,38.0641241212874,26.8776296826667
11560,Doğanbey Muhtarlık,38.068054,26.904852
10686,Ürkmez Kumsal,38.0770971585809,26.940125537737
10694,Gümüşsuyu Orman Kampı,38.077566,26.975715
51857,Ardıç,38.530357502665,26.6070114234691
51572,Mordoğan Ardıç,38.5271,26.6116
51570,Eski Mordoğan,38.52478053368,26.6134563983334
51628,Mordoğan Nergis,38.46847,26.585228
51614,Mordoğan Günbatımı,38.463955,26.586202
51630,Arko Sitesi,38.458876,26.584409
50674,Kamelya,38.3768088218752,26.6396893198134
50672,Göztepe,38.366777,26.644377
14669,Şirinköy,38.1807688191508,27.8749471551841
14671,Yeniköy Cami,38.1944,27.8895
14673,Yeniköy Şehit Cengiz Topel İlkokulu,38.1976993479559,27.8931026379598
14675,Demircili Yol Ayrımı,38.2062,27.9052
14723,Demircili Çiftlik,38.209609,27.909865
50662,Saha,38.3436,26.6412
50660,Dyo Kampı,38.341,26.6415
50704,Gülbahçe Pazaryeri,38.338376,26.641797
50610,Çardak,38.3354,26.64435
50073,Baydar,38.3805,26.9092
50075,Karaca,38.3796673028188,26.9049955476559
50077,Kirazlı,38.3788,26.9009
10948,Dereköy Yol Ayrımı,38.251485,27.125114
13279,Cumaovası Aktarma Merkezi,38.2629151082168,27.1627473478212
20354,Pamukkale Sitesi,38.4694,27.0785
14623,Tire Kavşağı,38.173217,27.717334
14641,Zeytinova,38.17089,27.722181
14647,Pınarlı,38.1619,27.7387
22755,Sahil Sağlık Denetleme,38.8263,26.9841
22789,Mavi Kent,38.9396993010975,27.0510971027551
23691,Deliktaş Şehit Cengiz Topel Ortaokulu,38.9886605619022,26.9264043486969
23629,Deliktaş Meydan,38.990681565091,26.9307443149031
23271,Süleymanlı Gölet yolu,38.6444358619368,27.1772607645452
21771,Görece Eski Yol,38.6463008227338,27.1700087968318
21773,Görece Çocuk Parkı,38.6487898369702,27.1661213325919
21551,Kent 2,38.5518272488046,27.0492294101729
21545,Ulukent Aktarma,38.5494,27.0381
21552,EGEKENT-2-SON DURAK,38.5547996129025,27.0498000292625
21524,Market,38.559772,27.045221
52033,Güzeltepe,38.3597093174871,26.8774506587344
52035,Ata,38.3584353186086,26.8750076688447
52037,Uğur Koleji,38.3562793210211,26.8720746790393
50391,Karaoğlu,38.35392,26.868575
50393,Çardak Kahve,38.349095,26.866363
51776,Alaçatı Güneş,38.294086,26.36716
51774,Alaçatı Çamlı,38.2914,26.3677
51772,Alaçatı Stadı,38.2867,26.370146
50620,Özbek Yolu,38.32687,26.746137
50618,Söğüt,38.332156,26.762475
50577,Yeşil Urla,38.3342,26.7683
11260,Gölcükler  Adnan Ocay Ortaokulu,38.2590191960488,27.1440882809575
15535,Fesleğen,38.2573691095878,27.1412403329219
10977,Değirmendere Yol Ayrımı,38.1413,27.15
14447,Zafer,38.1366,27.1532
10935,Güzel Çam,38.084405,27.187789
10927,Kalabak,38.0801,27.1914
11003,Ahmetbeyli Çeşme,38.0209,27.1882
11144,Badem Ağacı,38.0171984700119,27.1878978335055
11019,Zindancık Trafo,37.9923,27.1365
11161,Özdere Spor Salonu,37.9953,27.1307
11025,Sümbül,38.0157,27.1027
21054,Evka 5 Park,38.5158,27.0551
20096,Balatçık Kahveler,38.5119,27.0452
21049,Münevver Öğretmen Ortaokulu,38.5119874292042,27.0510084667258
21057,Atatürk,38.5145289798938,27.0497096940342
21059,9 Eylül,38.5162004315513,27.0526004362162
23533,Gezer,38.5199064647919,27.0649833450096
20528,Vali Namık Kemal İlköğretim Okulu,38.480898,27.136445
20526,Nuri Atik Mesleki ve Teknik Anadolu Lisesi,38.4796686533683,27.1356281631225
20524,Gümüşpala Lisesi,38.478442,27.134303
20516,Gümüşpala Ticaret Lisesi,38.477386,27.134356
20518,Karşıyaka Endüstri Meslek Lisesi,38.477176,27.136569
20519,Nafiz Gürman Muhtarlık,38.4775,27.1398
22294,Kozbeyli Karanfil,38.7145145465474,26.8949700319375
21933,Kozbeyli Meydan,38.7157,26.89382
20004,Karşıyaka İskele,38.4556506509303,27.1225807107001
20256,Nalkesen,38.4704,27.102
23696,Doğakan Güngör Parkı,38.4712215528288,27.0999363858035
21586,Kumtepe,38.57924,26.97724
21572,Çitlenbik,38.5558732858114,27.0139114498697
21495,Ulukent Aktarma,38.5478,27.0353
21583,Seyrek Belediyesi,38.578292,26.978718
22370,Menemen Garaj Karşısı,38.6112,27.071811
22369,Öğretmen Evi,38.6127217774145,27.0741432111069
22366,Gökbaş,38.616559,27.084571
22339,Süleymanlı Meydan,38.634938333333,27.17846
21765,Süleymanlı,38.635249,27.177897
20836,Evka 6,38.5012905408542,27.0910032939627
30007,Bornova Metro,38.4585394752359,27.2138512545053
20146, Selçuk Yaşar Alaybey Ortaokulu,38.4596,27.1265
20144,Tersane,38.461587,27.128038
20517,Karşıyaka Endüstri Meslek Lisesi,38.477232,27.136836
20515,Gümüşpala Ticaret Lisesi,38.4774,27.1351
20523,Gümüşpala Lisesi,38.478821,27.134748
20700,Nafiz Gürman,38.488182,27.143249
20536,Orkide,38.4863,27.1418
20532,Kayalık,38.4838614877494,27.1398910065926
20420,Çam,38.4674106435422,27.13707021394
20418,Naldöken İtfaiye,38.4668,27.1342
16127,Gökçen Bahçe,38.1130748107932,27.8601267246176
15780,Tire Gökçen Mezbaha,38.1128038068326,27.8557926852058
15778,Peşrefli,38.112614809084,27.8483136136136
15989,Peşrefli Çiftlik,38.1121227991142,27.8441965793622
15828,Eken,38.1113457811204,27.8400375482615
15775,Gökkurt,38.1103737590506,27.8349775105063
15773,Kireli Giriş,38.1092107337498,27.8287724634675
15771,Kireli,38.1069526768795,27.8230584337766
15769,Konserve Fabrikası,38.1023945560073,27.8166894224477
13250,Fatih Sultan Mehmet Teknik ve Endüstri Meslek Lisesi,38.351281389204,27.0837686960389
13256,Sümbül,38.353096,27.082677
13268,Yaşar Kemal Mahalle Muhtarlığı,38.3543,27.0821
12428,Maliyeciler,38.388782,27.097025
12426,Metin Oktay Mahallesi Muhtarlığı,38.3892,27.0944
12424,Nevvar Salih İşgören Anadolu Lisesi,38.3904743122307,27.0900599077255
10289,Hıfzıssıhha,38.393188,27.085855
12517,Kardeşler,38.3827,27.1003
12516,İkinci Trafo,38.3814839341939,27.0975779675463
12521,Limontepe Pazaryeri,38.379,27.1005
20530,Nafiz Gürman Eski Son Durak,38.4822413267042,27.1382172740586
20202,Metin Aşıkoğlu Ortaokulu,38.454431,27.106258
20200,Şehit Diplomat Erdoğan Özen,38.4525,27.1047
30543,Yunus Emre,38.4437,27.2287
30545,İzeltaş Mağaza,38.4368,27.2266
30517,Yıldız,38.42696,27.229564
30519,Işıkkent,38.4258007933714,27.2306999848354
23324,Görece Giriş,38.6471077787827,27.1616108457132
23321,Görece Seralar,38.6439667663084,27.1586488916766
22382,Hasanlar,38.639894,27.126023
22391,Menemen Şehir Parkı,38.6072380093726,27.0739128853353
22257,Menemen Aktarma Merkezi,38.603665,27.076036
10030,Konak,38.4162181137466,27.1263209374252
40106,Yeniyol,38.400258,27.149508
10904,Küçük Menderes Nehri,38.0128,27.4357
10752,Tarım Ürünleri Deposu,38.01761,27.439206
10902,Belevi Kavşak,38.020619,27.442276
16119,Belevi,38.0170622289103,27.4454812293609
16176,Belevi Meydan,38.013786410833,27.4491007873243
11578,Torbalı Tıp Merkezi,38.159556,27.356957
11600,Torbalı Diyaliz Merkezi,38.1626049666138,27.3565701381467
11596,Torbalı Anadolu Lisesi,38.1654989986536,27.3564001476507
11594,Fulya,38.167835,27.356342
11590,Özensu,38.170752,27.354675
12205,Kestelli,38.390075,27.121875
12207,Bozyaka Cami,38.3895310081042,27.1198908961109
12211,Karaselvi,38.3851,27.1147
12213,Bayram Kahya,38.380773,27.112887
12215,Kuyu,38.3778,27.1106
12509,Yıkık Cami 2,38.377,27.107
31302,Toprak Yol,38.4744861034637,27.2181043922075
31300,Lale Tepe Cami,38.47272,27.21876
31298,Malazgirt İlköğretim Okulu,38.47074,27.2199
31478,Evka-3 Parkı,38.4667,27.2443
31476,Bornova Kooperatif,38.4655,27.2443
30334,Osman Kibar Kavşağı,38.4622,27.228
31281,Suphi Koyuncu,38.4624,27.2249
12708,Begonvil,38.3633,27.1322
12706,Sucu,38.3642,27.1327
10612,Osman Öksüz Parkı,38.4036,27.1234
10255,Üçyol Metro,38.4059,27.1209
12701,Karabağlar Polis Merkezi,38.3709,27.1351
12703,Aydın Parkı,38.3687,27.1341
12705,Ali Akatlar,38.3671,27.1335
12737,Şehit Süleyman Ergin,38.3505,27.1272
14603,Aktepe Meşe,38.35,27.1243
14601,Fuar İzmir,38.3477,27.1222
10617,Elka,38.3978,27.1303
40003,Şirinyer Karakol,38.3929,27.1483
40011,Yeni Mahalle,38.3913,27.1564
40019,İzmir Meslek Yüksek Okulu,38.3893,27.1684
30131,Çamdibi Sağlık Ocağı,38.43520069634,27.1807001507997
30179,Burak Reis,38.4373,27.1835
32285,Çocuk Parkı,38.4516797385566,27.1827730683977
32287,Zeki Müren Parkı,38.4544897433496,27.1823400570446
30006,Bornova Metro,38.4584410394289,27.2139271985359
30306,Şehit Murat Aslantürk,38.458029,27.18692
30302,Şehit Hakan Ünal,38.4565737520302,27.1839080397243
21031,Doğan,38.5209,27.0664
21062,9 Eylül,38.5154326949456,27.0519641311193
23364,Şehit Sezai Geçkin İlkokulu,39.0907581204607,27.389832091283
23156,İsmet İnönü Parkı,39.0887010895507,27.3858941265217
23154,Kınık Kaymakamlık,39.0875,27.3806
23152,Kınık Sanayi,39.0877959696752,27.3748522228521
22620,Ata,38.67292,26.90338
21922,Ahşap Ev,38.670491,26.902983
22575,Maltepe Sevgi,38.631024,26.918063
21622,Maltepe Mezarlık,38.630517,26.924
22456,Yıldız Mandıra,38.6235703433063,27.0582297087873
22454,Menemen Karakol,38.61599,27.06675
23212,Kesik Mavi,38.617321,26.990729
23220,Kesik Saha,38.617266,26.986854
50467,Yelki Üçyol,38.3442,26.8649
50469,Köşe,38.3426,26.8663
51770,Süren,38.288,26.3756
51768,Alaçatı Atatürk,38.288843,26.382393
51813,Alaçatı Sanayi,38.2913,26.3832
50579,Urla Mesleki ve Teknik Anadolu Lisesi,38.3309003526672,26.7669022080131
50581,Jandarma,38.328834,26.766461
50848,Jandarma 2,38.328255,26.765124
11258,Menderes Pazar Yeri,38.2555805255046,27.1390459197167
10979,İbrahim Fatih Cami,38.132,27.1548
10993,Çakaltepe Yolu,38.0758,27.1932
16040,Narenciye,38.0108494172566,27.1879277159562
11833,Saklıbahçe,38.001,27.1244
11027,Güneş Sitesi,38.0174,27.1013
21052,Çiğli İMKB Mesleki ve Teknik Anadolu Lisesi,38.5134004342257,27.0531004475467
20456,Gümüşpala Su Deposu,38.4766,27.1405
20504,Yunus,38.4758,27.1398
20502,Anadolu Cami,38.4751,27.1366
20500,Kubilay,38.4748,27.1337
20498,Pazaryeri,38.4744350375566,27.1312918053264
20151,Karşıyaka İskele,38.456,27.1223
21593,Bakırçay Üniversitesi,38.582290098352,26.9641006027335
21584,Seyrek Belediyesi,38.578022,26.978837
21585,Kumtepe,38.57927,26.97731
23266,Gediz,38.6267164960222,27.0967564354677
23264,Belen Yayla,38.6332485071155,27.1011813554334
21767,Hanımeli,38.63665,27.17662
23520,Süleymanlı Giriş,38.6380398619606,27.1765438233878
20421,Naldöken Yol Ayrımı,38.4666,27.131
20525,Nuri Atik Mesleki ve Teknik Anadolu Lisesi,38.4797886540861,27.135840161444
20145,Tersane,38.4629,27.1282
20147, Selçuk Yaşar Alaybey Ortaokulu,38.459512,27.126278
15767,Kürdüllü Giriş,38.1005535146977,27.8107003822999
15765,Benzinlik,38.0996274977828,27.8060753454319
15763,Saka,38.0982144662098,27.8020653196345
15762,Öztürk,38.0968974356396,27.7990443024753
15759,Işıklı Mezarlık,38.0954994048831,27.7953012783817
15757,Işıklı Köyü Giriş,38.0949833991821,27.7916722463872
15755,Boynuyoğun Pazaryeri,38.0943753939886,27.7869382039303
15753,Boynuyoğun Dörtyol,38.093937171157,27.7838472575753
15751,Çukuryer,38.0935403886164,27.7800501415604
13254,Yasemin,38.3558683959306,27.0821127042863
13266,Zambak,38.3586,27.0815
10281,Denizmen,38.393777,27.080654
10283,Göztepe Stadı,38.3951,27.0761
12523,Selvi,38.3778,27.1
12525,Üçüncü Trafo,38.377200442923,27.0982006377482
30547,İzeltaş,38.4336,27.228
30521,Hatice Güzelcan Anadolu Lisesi,38.4261008003165,27.2329999743348
22392,Sarıkaya Mevki,38.6415705916802,27.1221491516862
22380,Haykıran Giriş,38.640527,27.118851
40104,Fabrika,38.3965,27.1487
40102,Şirinyer Bankalar,38.3937,27.1486
40009,Şirinyer Pazar Yeri,38.3926,27.1499
40159,Şirinyer Parkı,38.391,27.1509
40160,Şirinyer Parkı,38.3901910802061,27.1510367964696
10940,Belevi,38.016918,27.445757
10897,Belevi Kavşak,38.020471,27.442161
10754,Altınordu Tesisleri,38.048608,27.438298
14300,Eylül,38.1715,27.3508
15435,Fulya,38.1693930747478,27.3447001250354
11515,Torbalı Aktarma,38.168839944588,27.3473392386993
12461,Briketçi,38.3781,27.1045
12463,Umut Mahallesi Köprü,38.3766,27.1037
12465,Küçük Trafo,38.3737362386614,27.1011476921767
12467,Çakırtepe,38.3719,27.0987
12469,Ali Fuat Erden Mahallesi Muhtarlığı,38.3693,27.0962
12471,Memiş Kahya,38.3669,27.0931
12473,Güzel İzmir Cami,38.3642,27.0908
32268,Yıkık Minare Cami,38.4696898992863,27.2225237897296
31292,Erzene Muhtarlık,38.4678888888542,27.2207338084903
31276,Büyük Park,38.4618998634737,27.2175838567597
31474,Adil Demir Sitesi,38.4642,27.2477
12704,Dede,38.3659,27.1329
12702,Aydın Parkı,38.3687,27.1342
10276,Uğur Mumcu Parkı,38.402798,27.116099
10300,Üçyol Aktarma,38.4039,27.1181
12707,Dede,38.3661,27.133
10298,Üçyol Aktarma,38.404,27.1183
40025,Buca Heykel,38.3882005588638,27.172700338193
52056,Alp,38.1675076569982,26.8258492295101
13554,Akarca,38.1642536662032,26.8261421792774
13539,Doğanbey Payamlı Son Durak,38.086004,26.867287
13540,Ömür Beldesi,38.0608,26.8782
13687,Ömür Sitesi Yağmur,38.0654876443888,26.8623951777579
13683,Ömür Sitesi Mavi,38.063481,26.860886
13679,Ömür Sitesi Sahil Yolu,38.0627096634799,26.8586441190116
13685,Ömür Sitesi Güneş,38.0654326732221,26.8561201857774
13686,Ömür Sitesi Merkez,38.067095,26.855996
30529,Pınarbaşı Mezarlığı,38.42374,27.25628
30539,Gürpınar,38.4247,27.26152
30679,Demirler,38.4265,27.2742
30681,Pınarbaşı Kültür Merkezi,38.4287009289571,27.2757997949687
30181,Havuzlu Kahve,38.4375,27.1864
30301,Şehit Hakan Ünal,38.4561514272666,27.1828812294219
31271,Mahfel,38.46011,27.21628
32286,Zeki Müren Parkı,38.454245742554,27.1822360586914
22088,Evka 5 Toki Evleri 2,38.5213,27.0621
21060,Atatürk,38.5150004233929,27.0494004609108
23150,Kınık Ulu Cami,39.0903008990879,27.3701942617664
23682,Kınık Havuz,39.0908318388634,27.3651373044962
23148,Kınık Stad,39.0906,27.3608
21494,Gerenköy Fabrika,38.666198,26.903463
21718,Maltepe Saha,38.628203,26.927784
22365,Menemen Toplum Sağlığı Merkezi,38.6094919451606,27.0709600930474
23210,Kesik Kanal,38.617955,26.983434
10361,Kemer 2,38.422,27.1506
11937,Barbaros Hayrettin İlkokulu,38.4202,27.1675
11939,Levent Çeşme,38.4187,27.1665
11955,Kahveler,38.4137006214421,27.1699002763343
11973,Çamlık Cami,38.413,27.1791
11982,Çobançeşme,38.4141,27.1862
30028,Havuzlu Kahve,38.4257,27.1978
30026,Şehitler,38.4264,27.1944
10126,Borsa,38.4245,27.1346
10102,İskele,38.4199,27.1279
10357,Basmane Gar,38.4224,27.1455
32244,Ağır Bakım,38.4258806645204,27.1764502060927
30031,Altındağ Belediyesi,38.425632,27.201382
10123,Basmane Ptt,38.4224005849569,27.1415003678137
10576,Gürçeşme,38.4162,27.1592
41136,Kasap,38.4090994959626,27.1618094198796
41116,Kaptan,38.4074,27.1625
40436,Onat,38.3996,27.1554
40431,Adnan Kahveci Parkı,38.3957,27.1529
40433,Çağrı,38.3982,27.1531
40435,Onat,38.3994,27.1554
40438,Çamlık Cami,38.4018605699491,27.1572273622891
40692,Çiçek,38.4049,27.1608
41117,Kaptan,38.4073,27.1625
20627,Dedebaşı Cami,38.4729,27.1091
20643,Köprü,38.491701,27.115471
20645,Şantiye,38.4947,27.1161
20660,Dostlar,38.4864,27.1063
20658,Dizdar Cami,38.485,27.1062
41208,Adatepe Park,38.3864,27.1896
41344,Ardıç,38.3820145653319,27.1896312934808
40583,Adatepe Üçgen Park,38.3829311122727,27.185894005091
40068,İktisadi ve İdari Bilimler Fakültesi,38.3848414186427,27.1798568792053
40742,Buca Üçkuyular Meydan,38.382357,27.175936
40022,Buca Sosyal Güvenlik Kurumu,38.3889004041964,27.171201248537
40018,Öğretmen Evleri,38.390061884823,27.166104641177
40004,Şirinyer Karakol,38.3932,27.1481
12066,Arap Cami,38.4057085314853,27.1285914689866
12058,Eşrefpaşa,38.4083,27.1288
10235,Koruluk,38.4123,27.1309
40737,Buca Sağlık Ocağı,38.3828,27.1728
41203,Adatepe Garaj,38.3847034552088,27.1875864720532
31435,Villa 1,38.4738,27.2486
31437,Villa 2,38.4759,27.25
31453,Çıkış,38.47587,27.245319
31455,Şahin Tepesi,38.4741,27.2441
31458,İzyuva,38.4746009805544,27.2424996664513
31438,Villa 2,38.4759,27.2497
31428,Ege Diyaliz,38.4673,27.2353
31082,Cengizhan Son Durak,38.4772,27.169
31130,Ticaret Borsası İlköğretim Okulu,38.479,27.1724
31124,Başaran,38.474441,27.173126
31102,Dümbüllü,38.4739,27.1767
31096,Köşe,38.4763,27.1814
30982,Çay Mahallesi Son Durak,38.4711,27.1806
30976,Çorapçı,38.4681105030216,27.1736214696264
30962,Matbaa,38.4631,27.1696
30284,Bayraklı Depo,38.4559,27.1764
30280,Adliye,38.45,27.1796
30140,Üçüncü Sanayi,38.4458,27.181
11892,Çınarlı Mesleki ve Teknik Anadolu Lisesi,38.4408006940929,27.1753013631499
12874,Halkapınar Tramvay,38.4334524362462,27.1704068630941
10464,Halkapınar Metro,38.4330275114779,27.1694316884458
20458,Cemil Atlas İlköğretim Okulu,38.4789,27.1413
23618,Doğançay Aile Sağlığı Merkezi,38.4779616657785,27.140713145511
20057,Turan,38.467551,27.149388
40103,Fabrika,38.3972,27.149
40105,Yeniyol,38.3998,27.1496
10040,Konak,38.416022,27.126181
10103,Belediye Sarayı,38.4214,27.1297
10578,Gürçeşme Cami,38.4141,27.1607
10580,İsmet Paşa Sağlık Ocağı,38.41078,27.159625
11980,Çobançeşme Eski Son Durak,38.413,27.1861
11978,Sevgi,38.4126,27.1839
11964,Gültepe Kültür MErkezi,38.4120684867038,27.1785186758561
11962,Depo,38.4124196286716,27.1776637950627
11954,Gazi Caddesi,38.4126,27.167
11932,Zeytinlik,38.419693,27.163311
31552,Otogar Yeni,38.429,27.2126
10366,Tepecik Doğum Hastanesi,38.4240006380928,27.1662002563712
30019,MTK Birinci Giriş,38.4256,27.1818
30035,Şehitler Ortaokulu,38.4256,27.2038
20629,Havva Özişbakan Lisesi,38.475627,27.109738
40002,Nato,38.3938,27.1415
12057,Eşrefpaşa,38.4081,27.1285
40013,Buca Vergi Dairesi,38.3909005462839,27.1594003810368
40739,Buca Üçkuyular Meydan,38.3823,27.1758
41205,Adatepe Park,38.3864,27.1897
31456,Şahin Tepesi,38.474,27.2441
31436,Villa 1,38.474,27.2487
31776,Evka 3 Aktarma Merkezi,38.465907,27.228341
31128,Kahveler,38.4786071574416,27.1747747256374
31547,Çınarlı Diş Hastanesi,38.4397,27.1734
30135,Stadyum İstasyon,38.442000710928,27.1803001235163
30139,Üçüncü Sanayi,38.4464,27.1812
30279,Adliye,38.4498,27.1799
30283,Bayraklı Depo,38.4559,27.1766
20454,Gümüşpala Merkez,38.4743,27.14
20452,Emek,38.47207,27.138014
20417,Naldöken İtfaiye,38.4666,27.1343
20419,Çam,38.467371,27.137276
11952,Levent,38.4131,27.1663
11930,Hacı Bayram Cami,38.419184,27.159691
10130,Şehit Fethibey,38.4228272009637,27.1320369028685
31123,Başaran,38.474156,27.173213
31121,Sevgi,38.4726,27.1726
31104,Çardak,38.4724,27.1746
41021,Lojmanlar,38.3080003167379,27.3060001841814
41023,Zeytinlik,38.3087404964252,27.309590676601
41025,İğde,38.3107072424951,27.3117905354182
31301,Lale Tepe Cami,38.4729,27.2187
31311,Emniyet Lojmanları,38.47554,27.21276
31313,Ufuk,38.47469,27.21038
31246,Bülbül,38.4791,27.2042
31329,Köşe,38.479035,27.202791
31335,Manzara,38.481948,27.19333
31337,Sevgi,38.4818,27.1947
31399,Barbaros Cami,38.4835,27.2021
10252,Üçyol Metro,38.4057005200398,27.1213004996243
11595,Fulya,38.167818,27.35614
11597,Torbalı Anadolu Lisesi,38.1653989981666,27.3562001466675
22046,Yüksek Vadi 2,38.500891,27.094687
22014,Taş Duvar,38.5,27.0923
20858,Mustafa Kemal Mahallesi Muhtarlığı,38.4944005545512,27.0965002980331
20856,Körfez Köy,38.4938,27.094
20718,Marangoz,38.485395,27.10002
20716,İnönü Mahallesi Muhtarlığı,38.484,27.0997
20214,Zafer Takı,38.4671,27.1096
40088,Begos,38.377506993673,27.1896820631381
40012,Yeni Mahalle,38.3913,27.1571
40010,Şirinyer PTT,38.3918,27.1534
12068,Konak Anadolu Lisesi,38.3978005216998,27.1321004723109
12268,Yeşilyurt İtfaiye,38.4016,27.1155
50046,Narlıdere Kaymakamlık,38.3963,26.9908
51247,Manolya,38.3689,26.8626
51259,Öz Zümrütevleri,38.3675,26.864
51246,Manolya,38.369,26.8625
51244,Orkide,38.3669,26.8614
51790,Çeşme Mavi,38.316545,26.337539
51788,Çeşme Yunus,38.310545,26.34889
51786,Ilıca Hastane,38.3065107521234,26.3563215976064
51812,Çeşme Emniyet Müdürlüğü,38.30367,26.362619
13621,Kuru Dere,38.1612,26.9416
13665,Çoban Yıldızı,38.158,26.9372
13623,Papatya,38.1570494432844,26.9351646900022
10971,Sera Sokak,38.1835,27.1653
11115,Kekliktepe,38.1682,27.1585
10987,Ataköy Mina,38.093345,27.17035
10989,Ataköy Çıkış,38.0915,27.1753
11673,Ahmetbeyli Çiftlik Evleri,38.0306885773173,27.1882480752745
10925,Çobankızı,38.0277,27.1877
11015,Maydanoz Çıkış,37.9863,27.1742
11299,Kargacık Koyu,37.9851,27.1713
11831,7 Nolu Sağlık Ocağı,38.009487,27.11559
11023,Grand Efe,38.0104,27.111
21056,İlkevler,38.515,27.0534
22168,Tüvtürk,38.5104,27.0435
23514,İlkevler 2,38.5139281041523,27.0518879320692
22087,Evka 5 Toki Evleri 2,38.5213,27.0622
21051,Çiğli İMKB Mesleki ve Teknik Anadolu Lisesi,38.513400435315,27.0535004452337
21053,Evka 5 Park,38.5159,27.0546
21055,İlkevler,38.5149,27.0533
21073,Yıldız Tınas İzmiroğlu Anadolu Lisesi,38.5176064196426,27.0485304527044
22570,Maltepe Gediz,38.6292016384496,26.9103805168163
21789,Maltepe Kubilay,38.6298,26.91075
21791,Maltepe Köprü,38.6311,26.9159
22561,Maltepe Üçyol,38.637738,26.917111
21797,Gerenköy İlkokulu,38.6520027507388,26.9015365155535
21799,Gerenköy Bakkal,38.652855,26.901773
21493,Gerenköy Fabrika,38.666054,26.903715
21921,Ahşap Ev,38.670815,26.903124
21939,Lale,38.694628,26.899902
21923,Yeniköy Küme evleri,38.698286,26.900501
23279,Kozbeyli At Çifliği,38.7042515909691,26.8990740961573
20251,Nalkesen,38.4703,27.1016
20261,Nergiz Sağlık Ocağı,38.46956,27.10418
20204,Geçit 2,38.4574,27.107
20258,Adnan Menderes Anadolu Lisesi,38.4684109601194,27.1072973244603
21590,Seyrek Meydan,38.581612,26.973467
21578,Günerli Üçyol,38.566228,27.002462
21576,Hobi Park,38.56308,27.00477
21577,Günerli Üçyol,38.566342,27.00232
21579,Günerli Dörtyol,38.570798,26.996396
21591,Aşağı Çeşme,38.58215,26.96752
21774,Görece Çocuk Parkı,38.6485795039008,27.1660753365067
21772,Görece Eski Yol,38.6462746620172,27.1700632429293
50633,İçmeler Çıkış,38.3101577762306,26.6759796818962
51741,İYTE Giriş,38.314138,26.637738
51755,Zeytineli,38.286689,26.542093
51757,Nohutalan,38.28982,26.522762
52028,Demaş Kooperatifi,38.292074361943,26.5207928757398
22421,Siesta Konutları 2,38.4856217693717,27.0880862425155
22141,Soyak,38.4883,27.0917
22631,Yonca,38.4954,27.0986
22627,Ortanca,38.497295,27.095524
22625,Fidelya,38.498006,27.094596
23302,Ada,38.497566548036,27.0938342969922
22009,Şehit Üsteğmen Ahmet Konuksever,38.4987,27.0921
31303,Toprak Yol,38.4744685501185,27.2182389968713
31307,Gayrettepe Cami,38.477953,27.21921
31359,Nedim Dağtaş,38.48489,27.21813
31361,Evka 4 Depo,38.48796,27.21622
31365,Evka 4 Muhtarlık,38.4892,27.2148
20447,Gümüşpala Kahveler,38.468627644438,27.1368562094291
20449,Muhtar,38.470336,27.137376
20451,Emek,38.472206,27.138245
20535,Orkide,38.486,27.1419
50330,Güzelbahçe Kaymakamlık,38.3702,26.8922
15756,Işıklı Köyü Giriş,38.0948063939446,27.7917762491855
15758,Işıklı Mezarlık,38.0954094013458,27.7957132834973
15760,Öztürk,38.0966244282986,27.7988693034786
15761,Saka,38.0981774643468,27.8024293237207
15764,Benzinlik,38.0995814951241,27.80670835234
15766,Kürdüllü Giriş,38.1005225126631,27.8112623883341
15768,Konserve Fabrikası,38.1019995455312,27.8161914218604
15770,Kireli,38.1071186807772,27.8236264374679
15772,Kireli Giriş,38.1091327307482,27.8292624692581
15774,Gökkurt,38.1102217544171,27.8350955135647
15776,Eken,38.1111717760626,27.839963549743
13814,Bozköy Bahçe,38.2733,27.3613
13822,Bozköy,38.271641,27.36127
13816,Bozköy Yukarı Mahalle,38.2713461594015,27.3652792349597
20527,Vali Namık Kemal İlköğretim Okulu,38.480957,27.13669
20529,Nafiz Gürman Eski Son Durak,38.4822766647002,27.1386761344844
20531,Kayalık,38.4838807951114,27.140058018077
12512,Limontepe Cami,38.3837,27.1018
12510,Birinci Trafo,38.3819,27.1034
15836,Bahriye Üçok Mahallesi Köprü,38.379611,27.103447
12427,Maliyeciler,38.3887,27.0965
12429,Arap Deresi,38.3877204614219,27.0996986210116
12431,Yadigar Cami,38.3863,27.1013
13263,Lavanta,38.3528164095967,27.0876119726243
13264,Toki Evleri Son Durak,38.3538,27.0905
20043,Egem,38.4440301469948,27.1732141450569
20045,Salhane İş Merkezi,38.44991,27.172302
20450,Muhtar,38.4701,27.1372
20440,Ellinci Yıl İlköğretim Okulu,38.469526,27.129924
20430,Bahçe,38.4712,27.1228
20428,Demirci,38.471214,27.118158
30561,Selçuk Yaşar Boyacılık EML,38.4457,27.2226
30513,Işıkkent Mezarlık,38.4305,27.2245
30523,Yener,38.4246,27.2351
30551,Ayakkabıcılar Sitesi,38.42438,27.239805
22372,Belen Meydan,38.636388,27.102061
23263,Belen Yayla,38.6330125064354,27.1009583587514
23265,Gediz,38.6264394944822,27.0963164404747
20024,Bostanlı İskele,38.453292,27.09738
20197,Bostanlı Market,38.4573,27.0914
20189,Bostanlı Pazaryeri,38.4609,27.0869
20191,Beşikçioğlu Cami,38.463595,27.084305
20395,Atakent Anadolu Lisesi,38.4697005150814,27.0845004724658
20337,Haydar Aliyev Parkı,38.472687632483,27.0840429346076
20339,Mavişehir,38.4757,27.0749
20341,Karya,38.478456,27.065578
21095,Söğüt,38.4863249272082,27.060301261391
21097,Bayraktar Sitesi,38.486,27.0561
10880,Bölge Trafik,38.1279,27.3892
10878,Sepici,38.129556,27.385485
10876,Çaybaşı Mermerci,38.1329,27.3786
10874,Çaybaşı Lambalar,38.1341003482767,27.3753537274864
10872,Şehit Uzman Çavuş Mehmet Onur Özbent,38.137152,27.370745
22220,Salhane Aktarma Merkezi,38.451281,27.172254
30291,Şehit Musa Can,38.4493,27.1741
30320,Çağdaş,38.4609,27.2006
30318,Mustafa Kemal Anadolu Lisesi,38.4602007931357,27.1955999672864
21027,Zirve,38.5190004631725,27.0643003537789
21029,Gezer,38.5199,27.0651
21064,Evka 5 Trafo,38.5188,27.054
21061,Evka 5 İş Merkezi,38.517,27.0529
23362,Maarif Sokak,39.0873081065506,27.3864951217704
23360,Şehit Er Hakan Sağınç Caddesi,39.0868901410613,27.3892050980658
23357,Toki Konutları,39.0859842236421,27.3956880408555
21940,Lale,38.694584,26.899805
21930,Yeniköy,38.690144,26.90023
21808,Maltepe Köşe,38.629934,26.912673
21790,Maltepe Kubilay,38.629881,26.91083
22569,Maltepe Gediz,38.6293629694424,26.9102058235621
23237,Musabey Meydan,38.63667,27.008612
23239,Musabey Çamlar,38.6368,27.0105
23240,Musabey Çamlar,38.6369,27.0106
23679,Kantar,38.6340091444754,27.0099229433528
51242,Öz Zümrütevleri Giriş,38.3652,26.8618
51258,Bulgun,38.359111,26.860162
51240,Bahçe Arası,38.3646,26.865
51781,Ilıca Köprü,38.3042,26.3656
51784,Ilıca Terminal,38.305299,26.362487
51859,Urla Villalar,38.3093524062137,26.6985955411968
50638,Torasan Mahallesi,38.317319,26.707727
13903,Köprü,38.155209,26.934032
13905,Poyraz,38.1536,26.9324
10973,Çileme Yolu,38.1585,27.156
10623,Ataköy Güven,38.0898680741333,27.1801469438295
10999,Ahmetbeyli Market,38.0254,27.1879
11017,Koru Sitesi,37.9898,27.1515
11163,Güverte,38.0109,27.1077
22077,TOKİ İlkokulu,38.5219,27.0632
21071,Önder,38.518861,27.049665
21069,Palmiye,38.517565,27.050539
21063,Evka 5 Trafo,38.5187,27.0541
22281,Bulut,38.5203,27.0546
22275,Orkide,38.5209,27.0564
21793,Gerenköy Mezarlık,38.646438,26.90369
21795,Gerenköy Üçyol,38.648407,26.904006
21805,Gerenköy Çam,38.655306,26.901415
22621,Ata,38.67304,26.90347
23626,Yeniköy Yolu,38.6771086890873,26.9047042913992
22293,Kozbeyli Çamlık,38.7073,26.89757
20253,Adnan Menderes Anadolu Lisesi,38.4682015686234,27.107227361051
21588,Seyrek İlköğretim Okulu,38.5803,26.97553
21581,Ekin Koleji,38.5753316489559,26.9852732943862
23270,Süleymanlı Gölet yolu,38.6441788610627,27.1770637680334
21770,Defne,38.6404,27.1758
51759,Nohutalan Zeytin,38.298097,26.513199
51900,Nohutalan Taş Ocağı,38.302839271575,26.4945792205059
51961,Müjde,38.3025932575264,26.4846593171425
20855,Yamaç Evler,38.491821,27.091471
23307,Spor Kondisyon Parkı,38.4990995495074,27.0942372871274
22013,Taş Duvar,38.5001005448486,27.0925002916773
31367,Mehmet Akif Cami,38.49113,27.21507
31369,Evka-4 Anaokulu,38.4935947555535,27.2130134035534
31370,Evka 4 Son Durak,38.49504,27.21397
20453,Gümüşpala Merkez,38.4742,27.1403
50328,Pazar Yeri,38.3759,26.8921
50083,Eczane,38.3777,26.8893
50085,Liman,38.3771,26.8845
50089,Altmışıncı Yıl Anadolu Lisesi,38.3764002928062,26.8793016862262
15988,Peşrefli Çiftlik,38.1119857951528,27.844099580177
15777,Peşrefli,38.1124998046249,27.8492336242281
15779,Tire Gökçen Mezbaha,38.1126988035306,27.8559196878869
16126,Gökçen Bahçe,38.1129438066819,27.8602627277705
15781,Gökçen Mezarlık Yolu,38.1132388120052,27.8642357633095
15783,Gökçen Anadolu Lisesi,38.1133518116909,27.8686058054012
15784,Zafer Meydanı,38.1133758394006,27.8720126960591
15786,Ekin,38.1158648867571,27.8715267986773
15788,Gün,38.1188969807102,27.8701327413128
15790,Park,38.1216950668222,27.8688556885186
12438, Limontepe Seniye-Hasan Saray İlkokulu,38.379,27.1047
12436,Ülkü,38.382248,27.104792
12433,Egzozcu,38.3849,27.1031
12435,Ülkü,38.382362,27.104481
20444,Gümüşpala Karakol,38.469405,27.134929
20434,Terzi,38.4695,27.1279
20426,Soğukkuyu,38.469,27.1167
30559,Eser,38.4461,27.2257
30515,Turanlar,38.4295,27.2279
22367,Gökbaş,38.616895,27.0851
21115,Tenis Kulübü,38.4869961532473,27.0535005649942
21117,Kent Hastanesi,38.4907004401313,27.0524005583502
21132,Şehit Ali Karaoğlan Lisesi,38.4932,27.0545
20965,Egekent Dispanser,38.496768,27.061033
20977,Büyük Çiğli Anadolu Lisesi,38.4983004650219,27.0629004651719
22065,Ormancı Sitesi 2,38.5010894722093,27.0658244355092
22067,Bahar,38.5026,27.0671
22069,Şirinevler Giriş,38.5052,27.0683
22071,Şirinevler Son Durak,38.5062657669838,27.0690021744253
10941,Selçuk Yeni Son Durağı,37.942080002386,27.3658609544964
10870,Yemişlik,38.139721,27.369404
10868,Otel,38.1418,27.3681
11504,Torbalı Anadolu İmam Hatip Lisesi,38.1444987331893,27.3656001002753
11531,Tepeköy İstasyon Yolu,38.1452751233802,27.3631553286443
12210,Karakuyu,38.387572,27.116164
12208,Bozyaka Cami,38.389558,27.120685
12206,Kestelli,38.3901,27.1224
12204,Zincirlikuyu,38.3922,27.1259
10502,Fahrettin Altay Meydan 8,38.3963975866901,27.069755385092
10178,Adnan Saygun Sanat Merkezi,38.3985694286634,27.0762896924932
50003,Üçkuyular İskele Son Durak,38.405413,27.06933
31366,Mehmet Akif Cami,38.4919,27.2137
31364,Evka 4 Muhtarlık,38.4903,27.2149
12405,Yeşilyurt Türbe,38.3905004765516,27.1086005808246
12407,Tüpçü,38.3891,27.1097
30304,Şehit Polis Fethi Sekin,38.4505,27.1788
31272,Mahfel,38.46019,27.21619
30308,Çamkıran,38.4592,27.1915
23359,Şehit Er Hakan Sağınç Caddesi,39.0871158357095,27.3895713622568
23361,Maarif Sokak,39.0871841081375,27.386555121294
23363,Şehit Sezai Geçkin İlkokulu,39.0897871072152,27.3880921068653
22288,Yeniköy Türktelekom,38.686095,26.900498
22571,Maltepe Cumhuriyet,38.6288,26.9129
23241,Çavuş Köy Cami,38.63683,27.024012
23247,Musabey Yol Ayrımı,38.6257231738785,27.0136309815283
40803,Menekşe,38.3702363664243,27.1682217545092
40812,Yasemin,38.3693,27.166
40396,Begovilya,38.374477,27.16704
41168,Süsen,38.379366,27.155808
41166,Kızılkanat,38.3797,27.1517
23298,Bergama İZSU Şantiyesi,39.1113991022406,27.1904995277418
23291,Osman Nuri Ersezin Orta Okulu,39.1112700653514,27.1851405581458
23014,Bergama Salkım,39.1106930374191,27.1805145845554
22996,Küçükkaya,39.0925708714576,27.1348928585318
22994,Yalnız Ev,39.0893248501244,27.1275899036076
22796,Çandarlı Yol Ayrımı,38.9595,27.044
22778,Hacı Ömerli Muhtarlık,38.871212,27.064284
22776,Mavi Köşe,38.867543,27.061335
22760,Tabakçı plajı,38.829003,26.982994
22740,Aliağa İlçe Emniyet Müdürlüğü,38.7916975526025,26.9701168543822
22738,Aliağa Terminal İçi,38.790064,26.967581
51049,Ekmeksiz Plaj Yolu,38.1768793379596,26.778056821639
51047,Teos Antik Kenti,38.1802275185772,26.7807434946143
50658,Gülbahçe,38.3321,26.6434
50656,Balıkçı,38.328205,26.644253
50654,Yüksek Teknoloji,38.3209305546722,26.6463752795791
50642,Urla Bölge Trafik,38.315801,26.657436
50632,İçmeler Çıkış,38.3099573432598,26.6754689074068
32261,Ulucak Ayşe-Hasan Türkmen Ortaokulu,38.4827914780823,27.3554590861194
32260,Park,38.4817324661582,27.3540091014879
40122,Tınaztepe,38.3763,27.1922
40890,Spor Salonu,38.372230546184,27.1996712834489
40888,Yetmiş Beşinci Yıl İlköğretim Okulu,38.3737,27.1967
20674,Halime Çavuş,38.4814565471388,27.0955203642179
20685,Atatürk İlköğretim Okulu,38.4834998789321,27.0945996322511
20697,Şair Eşref İlköğretim Okulu,38.482588,27.09869
20703,Behçet Uz Anadolu Lisesi,38.4822855582275,27.0996603384686
20699,Şair Eşref İlköğretim Okulu,38.4827,27.0987
20698,Surlar,38.4834,27.0967
20676,Geçit,38.477391,27.09924
20070,Serinkuyu,38.4741005659881,27.1045003497148
41226,Yamaç,38.4002,27.2026
41222,Toki AVM,38.3997,27.2061
41230,Fabrikalar 3,38.396,27.2053
41206,Adatepe Garaj,38.3844934605134,27.187674838457
12070,Şelale Parkı,38.396,27.134
15532,Konak,38.416361548199,27.1273644470157
40687,Çimenli Cami,38.4048,27.1556
41123,Çağrı,38.4056,27.1571
10371,Halkapınar İZSU,38.4256006589238,27.1742002166466
30129,Taç Sanayi,38.4317,27.18064
30153,Kartal,38.4321,27.1913
30155,Çamdibi Esnaf Odası,38.4315,27.194
30161,Park,38.4295,27.2029
30228,Çimentaş Lisesi,38.4317,27.203
32246,Narova,38.4368807756519,27.2106300152028
32248,Çocuk Parkı,38.438900781009,27.2105000062374
31833,Üçgen Park,38.4423,27.2062
31835,Zeybek,38.4413,27.2034
31839,Alışveriş Merkezi,38.4493,27.2137
30555,Öğrenci Köyü,38.4504,27.2181
32234,Rafet Paşa,38.4421377617066,27.1999270365542
31834,Zeybek,38.4413,27.2036
32245,Narova,38.4370207758128,27.2105400149278
30492,Egemenlik,38.4361387669999,27.2081150292854
30152,Gürbüz,38.4331007051533,27.1865001345773
30128,Birinci Sanayi Sitesi,38.4301,27.1802
10370,Halkapınar İZSU,38.4256006571802,27.1734002200277
10364,Ziya Gökalp Ortaokulu,38.4233006292295,27.162700273705
10121,Çankaya,38.42242,27.13935
13351,Kemer Aktarma Merkezi,38.4213400609377,27.156569
11929,Hacı Bayram Cami,38.41913,27.160035
11931,Zeytinlik,38.4196,27.1632
13082,Çileme Giriş,38.1586,27.1566
11167,Değirmendere Giriş,38.140956,27.149584
11179,Eski Bulgurca Yolu,38.1382524350271,27.1475431451398
11535,Tekke Mezarlığı,38.1360110716036,27.1475606888692
11169,Atatürk,38.133747,27.147208
12529,Limontepe,38.3730434350581,27.0972026445592
12518,Limontepe Pazar Yeri,38.3791,27.1005
12216,Kuyu,38.3778954567884,27.1108695875486
12292,Karabağlar Kazım Karabekir Ortaokulu,38.3925004930668,27.1188005362063
10241,Kız Yurdu,38.412928,27.127281
10611,Osman Öksüz Parkı,38.4041841326068,27.1226436746712
12263,Spotçular,38.400596,27.123426
12565,Zincirlikuyu Trafo,38.386858,27.124557
12665,Eserkent Köşe,38.3792,27.1251
12696,Günaltay,38.3735,27.1165
12664,Çağdaş,38.377,27.1246
12568,Seniha Mayda Ortaokulu,38.3852004855162,27.123900527718
10246,Bayramyeri,38.4085,27.1267
40145,Akıncılar Merkez,38.3843565118911,27.1463914432715
40175,İzban Koşu Durağı,38.3834915108013,27.1471704419394
40241,Barış,38.3818,27.1652
40817,Çocuk Parkı,38.368418,27.169874
40814,Nergis,38.3677,27.168
23299,Bergama Sanayi Sitesi,39.1138290681366,27.1882315384658
22992,Bergama Park,39.0871453642897,27.1228455559514
22794,Kazıkbağları Merkez,38.944708,27.047261
22758,Sahil Sağlık Denetleme,38.8263,26.9839
51474,İzsu Siteler,38.307778,26.693217
51472,Göçmen Konutları Çıkış,38.3045,26.6947
51470,Bahçe,38.3072,26.6997
51468,Site,38.3086432065051,26.7028347298832
51466,Soydaşlar,38.3119,26.7047
51464,Göçmen Konutları Giriş,38.3141,26.7043
40885,Kampüs Giriş,38.375621,27.194212
40887,Yetmiş Beşinci Yıl İlköğretim Okulu,38.3734,27.1967
10470,Halkapınar Metro,38.4328,27.1696
11893,Birinci Sanayi Sitesi,38.4323,27.174
11895,Veterinerlik,38.4289,27.1731
20705,Saraç,38.480706,27.102039
20068,Dedebaşı,38.4722,27.1077
20154,Osman Bey Parkı,38.4545,27.1187
41214,Fabrikalar 2,38.3948,27.2028
41125, Rıdvan Nafiz Edgüer Ortaokulu,38.4067,27.1593
30556,Öğrenci Köyü,38.4507,27.2182
31840,Alışveriş Merkezi,38.4495,27.2137
15896,Hayat Yaşam Hobi Bahçeleri,38.1576465906087,27.1603046664552
15617,Battal Gazi,38.1512155033537,27.1739296234478
13076,Çileme Trafo,38.1517,27.1772
11181,Badem,38.131413,27.146413
11171,Doğa,38.12913,27.1453
11235,Taş Villa,38.12608,27.14283
12524,Saadet Onart İlkokulu,38.3748774394636,27.0986456377294
12290,Gülyaka,38.3955,27.12
12287,Osman Kibar,38.39799,27.122956
12511,Bahriye Üçok Mahallesi Köprü,38.3794,27.1039
40243,Ali Kuşçu İlkokulu,38.379987,27.165314
20091,Küçük Çiğli,38.504356,27.051658
21035,Zirve,38.5189,27.064
21028,İzkent Son Durak,38.5179004658544,27.0651003549622
30421,Çamkule,38.4149,27.1908
30435,İğdeli,38.4146,27.1897
22011,Oyak Blokları,38.4931,27.0903
20821,Acer,38.4933,27.0895
21519,9 Eylül Muhtarlık,38.5383,27.0356
21542,Metrokent,38.5519,27.0542
21540,Manzara,38.554387,27.055925
21516,Gazi Mahallesi Son Durak,38.561978,27.067973
21543,Metrokent,38.552,27.0542
21547,Santral,38.550035,27.052417
50368,Asır,38.3643269970536,26.8803267022102
50086,Eczane,38.3779,26.8908
50084,Anıt,38.3782,26.893
51826,Fahrettin Altay Meydan 3,38.3976672700055,27.0695643888969
51921,Fahrettin Altay Aktarma Merkezi,38.3984904357128,27.0665507498955
23314,Çiftel,38.5028293979666,27.0372335900526
21322,Tekel Lojmanlar,38.5183,27.0332
21344,Jandarma,38.5186973948623,27.0398962498919
21172,Fabrika,38.5044,26.9888
21170,Tel Örgü,38.500456,26.990021
22146,Çiğli Aktarma Merkezi,38.4920174626851,27.0616125011874
21174,Kaklıç Köprü,38.5058802793009,26.988733860935
23286,Kaklıç muhtarlık,38.5055922859352,26.9914868457434
21256,Düğüm,38.5142713928183,27.0378375319351
21248,Kyk Çiğli Öğrenci Yurdu,38.5129125414933,27.0376568973684
30843,Ovacık,38.4205776996036,27.6562372342636
30845,Değirmen,38.4224,27.661
30777,Benzinlik,38.4254862355744,27.6633172928202
30842,Ovacık,38.4206,27.6561
32300,Zeytin,38.4187416472885,27.65173271852
30840,Sarılar,38.4173,27.6484
30814,Ören Belediye,38.4087,27.585
30812,Ören,38.41,27.5837
30875,Kırcanlar,38.405726,27.514461
30899,Aşağı Kızılca,38.4026,27.5152
32201,Yukarı Kızılca Çamlık,38.407070557411,27.4842652861477
30880,Kooperatif,38.410898,27.481825
30878,Yukarı Kızılca,38.4148,27.4793
30756,Kemalpaşa Havuz,38.4308,27.4088
30778,Rıfat Ilgaz Son Durak,38.4336434228401,27.4055682913002
11309,Bahçeli,38.2042,27.2332
11311,Gürsel,38.2008,27.2345
11209,Pancar Meydan,38.1981704510785,27.2357546733152
11449,Oğlananası Sevgi,38.243171,27.225585
11451,Oğlananası Köprü,38.245364,27.228147
11453,Oğlananası Zeytinlik,38.251185,27.230537
11254,Menderes Stadyum,38.2555,27.1362
11252,Menderes İnönü,38.256000115787,27.1322003403511
10717,Sümerbank,38.2544,27.1308
14927,Beşgöz,38.2278,27.9822
15480,Şehit Polis Gökhan Kirazlı,38.2301247158225,27.9841064976327
14939,Yolüstü Benzinlik,38.2123237533043,28.0188051632767
14947,Gerçekli,38.2046338165057,28.0356093645134
14957,Kurucaova,38.1760663763091,28.0799824762986
14969,Kaymakçı Köprü,38.1643851378669,28.1216241540313
15140,Kiraz Giriş,38.219181,28.207022
16006,Değirmenönü,38.2152008272918,28.2063562432363
15130,Köfündere,38.1841132457455,28.1709459902692
15985,Orhangazi Yolu,38.1815471199197,28.1681630473385
14970,Kaymakçı Köprü,38.164517,28.121517
14968,Kaymakçı Sanayi,38.165139,28.119539
14960,Kurucaova Tarla,38.1728992959821,28.0878046255172
14958,Kurucaova,38.1760993796839,28.0804044788975
16031,Kışla Mahallesi,38.1958669377853,28.0491817278702
14950,Gereli,38.1985000106774,28.0455036353793
14938,Büyükavulcuk,38.2173,28.012
14936,Ocaklı,38.2219,28.0055
15479,Ödemiş Devlet Hastanesi,38.2317647895181,27.9879604797881
15481,Şehit Polis Gökhan Kirazlı,38.2301297146072,27.9838674962619
11809,Bayındır,38.2213,27.6476
11802,Güven,38.219696,27.64764
11800,Bayındır Fatih İlkokulu,38.2175993848132,27.6475010999406
11798,Bayındır Sadık Susamcıoğlu Anadolu Lisesi,38.2175093815167,27.6451820914187
11796,Sokullu,38.217404,27.642443
11780,Bayındır Çınar,38.2173,27.6358
15642,Bayındır Gül,38.2173713712348,27.6325120423209
15640,Bayındır Zeytin,38.2153473306418,27.6250630293312
15637,ÇİKOOP,38.2122542742202,27.6253140545975
14720,Tokatbaşı Yol Ayrımı,38.2083992033933,27.6252510840762
14719,Şehit Yüzbaşı Halil Özdemir,38.2030916521483,27.6251548261663
16028,Süt Toplama Merkezi,38.1997670433554,27.6252591486019
14717,Şehit Jandarma Er Önder Turgay,38.1977944596255,27.6250494595012
14715,Tokatbaşı Köşe,38.1933023717301,27.6246981875987
14713,Tokatbaşı Çiftlik,38.182468158878,27.6246226561299
20948,Şirintepe,38.4933,27.0682
20946,Güzeltepe Karakol,38.4949,27.0694
20910,Metin Aşıkoğlu İlköğretim Okulu,38.5018684213119,27.0753095488917
20908,Güzeltepe Muhtarlık,38.501,27.0724
22144,Çiğli Aktarma Merkezi,38.492071,27.061494
20086,Çiğli Belediye,38.4911004750688,27.0665004782005
20085,Çiğli Belediye,38.4915009576302,27.0663009284543
20885,Mobilyacı,38.4934133184706,27.0654227154934
20911,Metin Aşıkoğlu İlköğretim Okulu,38.5018012294371,27.0753023818847
20913,Kemal Hadımlı Ortaokulu,38.5023005021405,27.0770003668853
20945,Güzeltepe Karakol,38.495,27.0694
20947,Güzeltepe Tansaş,38.4932,27.0681
20956,Güzeltepe,38.4961,27.0754
15457,Elifli Sera,38.1954509795548,27.5875740088898
16096,Elifli Meydan,38.2003040679885,27.5796919475404
11768,Elifli,38.195485,27.580977
11766,Yeşilova Köy Yolu,38.1940799654169,27.5739199569225
11788,Canlı Çınar,38.1919818931208,27.5622259771748
11764,Canlı Çıkış,38.1921176248757,27.5590942194267
11760,Canlı Park,38.1921709522809,27.5529608764971
11752,Canlı Kahveler,38.1926131433172,27.5496437479023
15641,Bayındır Gül,38.2171003659834,27.632025042638
11781,Bayındır Çınar,38.217086,27.63583
11797,Sokullu,38.217293,27.64248
11799,Bayındır Sadık Susamcıoğlu Anadolu Lisesi,38.2173593786884,27.6451810927214
11801,Bayındır Fatih İlkokulu,38.2173993808193,27.6472011004922
11803,Bayındır Jandarma,38.22,27.6484
11805,Bayındır Fatih İlkokulu,38.2205994438409,27.6504010847355
11807,Bayındır Devlet Hastanesi,38.2214,27.6494
13995,Bayındır Son Durak,38.224,27.6472
10308,Üçyol Aktarma,38.4033,27.1173
12599,Kasap,38.3759,27.1308
12601,Karabağlar Briketçi,38.3744,27.1297
21058,İlkevler 2,38.5138,27.0518
20194,Bostanlı Pazaryeri,38.4606,27.0869
20093,Ata,38.505601,27.050345
20823,Kızılağaç,38.4954,27.0911
20825,Ketenci,38.4962146963481,27.0920517636353
21509,Ulukent Ortaokulu,38.538368,27.038815
23255,Egekent 2 Koruluk,38.5554660679308,27.0567430441969
22514,Gazi Mah  Toki Evleri,38.561511,27.065319
23724,Menemen İmam-Hatip Ortaokulu,38.5487664107388,27.0526822545714
50369,Bankacılar Sitesi,38.3666,26.8768
50045,Narlıdere Kaymakamlık,38.3966,26.9908
21158,Kaklıç Kavşağı,38.4946,26.9942
23287,Kaklıç Üçyol,38.5044092975544,26.9959898240743
21246,Ahmet Yesevi Cami,38.511307,27.037769
30838,Durmuşlar,38.416,27.6451
31800,Huzur,38.4109,27.5784
30810,Şato,38.4126,27.5741
30856,Aşağı Kızılca Koruluk,38.400868,27.514598
30872,Sarı Gül,38.417156,27.473381
15564,Menderes Son Durak,38.2414200541114,27.1359762670625
15562,Menderes SGK,38.2444454599654,27.1347688696042
11390,Oğlananası Giriş,38.263385,27.24445
11207,Pancar Cami,38.1972,27.2353
11205,Pancar Muzaffer Hanım İlkokulu,38.1960091060317,27.2345169690156
11455,Meteroloji,38.255524,27.233546
16033,Oğlananası Bahçe,38.2577860051229,27.2364982426694
10719,Menderes Belediyesi,38.2521,27.1325
10721,Menderes Ziraat Odası,38.249563,27.132929
15131,Yağlar,38.1966509835097,28.1987878069929
15138,Arkacılar Bulut,38.2109113142861,28.2033823467126
15120,Ödemiş Sanayi,38.1756089704713,28.1604679206222
14966,Şehit Hasan Uyar Parkı,38.1653,28.1149
15004,Sarıtaş,38.1777288299433,28.0753790815667
14948,Gerçekli,38.2046061714939,28.0361144183826
14928,Beşgöz,38.2279,27.9821
14710,Tokatbaşı Arıtma,38.1777946265225,27.6214349765031
14709,Tokatbaşı Mezarlık,38.1717339862846,27.6205301214113
14707,Tokatbaşı Giriş,38.1680198861464,27.6197027185823
14706,Tokatbaşı Giriş,38.1679168877333,27.6197800221446
14708,Tokatbaşı Mezarlık,38.1714900606816,27.6205773175016
14705,Tokatbaşı Meydan,38.1659886079295,27.6190506749255
14711,Tokatbaşı Arıtma,38.1778190797571,27.621754275801
14712,Tokatbaşı Çiftlik,38.1824407163568,27.6246812661028
14714,Tokatbaşı Köşe,38.1932061792021,27.6247855846145
14716,Şehit Jandarma Er Önder Turgay,38.1975460994042,27.6251628714515
16027,Süt Toplama Merkezi,38.1996729007856,27.6254701319756
14718,Şehit Yüzbaşı Halil Özdemir,38.2030895508556,27.6252888173457
11778,Çiçekçiler,38.2085102051835,27.6236790766374
20943,Güzeltepe İlkokulu,38.4965004871389,27.071300426684
20906,Güzeltepe Dört Yol,38.5001,27.0702
20084,Eğitim Gönüllüleri,38.4896,27.069
20887,Dereyolu,38.496431,27.067324
20939,Güzeltepe Üçyol,38.5006,27.0766
20949,Güzeltepe Kahve,38.4936207243401,27.0704683127298
13749,Cembekler,38.2026991305973,27.5433007911906
13731,Yakapınar Çıkış,38.21297,27.54393
13733,Yakapınar Mezarlık,38.214435,27.545846
13735,Dere Balık,38.24079,27.55383
13737,Küçük Ev,38.24408,27.55439
13739,Osmanlar Köyü Giriş,38.276088288459,27.5707252885988
13741,Özcan,38.2807712123646,27.5752852036281
13743,Küme Evleri,38.2822010710625,27.5764907060696
13745,Balcılar Son Durak,38.2831003920888,27.5786903452515
13744,Küme Evleri,38.282233,27.576598
13742,Özcan,38.2806900237454,27.5751102077109
12603,Bademlik,38.372641,27.129468
12605,Cevdet Güçlüer İlkokulu,38.3707374607275,27.129549524677
12856,Sağlık Ocağı,38.3595,27.1234
12854,Tepe,38.3617,27.1243
12600,Bademlik,38.372502,27.129627
12598,Karabağlar Briketçi,38.374,27.1297
12596,Kasap,38.375682,27.130769
12257,Çevik Kuvvet,38.4,27.122
12259,Bahçelievler,38.402,27.1181
20198,Bostanlı Market,38.4571,27.0913
20857,Körfez Köy,38.4936,27.0935
20679,Cumhuriyet Mahallesi Trafo,38.4797,27.0969
31315,Yüzüncü Yıl Karakolu,38.47657,27.2081
41167,Kızılkanat,38.3795,27.1517
20966,Egekent Dispanser,38.4969,27.0609
21133,Şehit Ali Karaoğlan Lisesi,38.4935,27.053
21116,Kent Hastanesi,38.4905004396899,27.0522005603382
21114,Tenis Kulübü,38.4871,27.0533
21096,Bayraktar Sitesi,38.4859,27.0556
41295,Yenigün Muhtar,38.3775,27.1638
41297,Nazım Hikmet Parkı,38.3747,27.1634
41156,Eski Bahçe,38.3708,27.1714
41155,Dilek,38.3695570086811,27.1734037482029
40851,Buca Kooperatif Meydan,38.3678,27.1876
40881,Aybers Hikmet Karabacak Anadolu Lisesi,38.3683005247668,27.1939003101805
40092,Beş Selviler,38.374149,27.193245
40121,Tınaztepe,38.3760919888141,27.1920470383545
40085,Beş Selviler,38.3739355428407,27.1927593019179
40087,Buca Belediye Şantiye,38.3688866899143,27.1962059325481
40877,Eski Son Durak,38.3677,27.1964
40879,Kahve,38.3668,27.1941
40867,Şafak,38.3678662111148,27.192406860056
50039,Siteler,38.395,27.0028
50014,İş Bankası Evleri,38.394,27.0493
10514,İkinci Oyak Sitesi,38.3895684323217,27.0713317383911
16086,Ali Fuat Erden Mahallesi,38.3712394302641,27.0951746534386
16085,Ali Fuat Erden Son Durak,38.3701344271381,27.0936416598972
20763,Aydınlıkevler Park,38.4905,27.0862
20819,Akçaağaç,38.4917,27.0875
20834,Gürgen,38.5035,27.0906
20816,Sevgi Ormanı,38.5045,27.0889
15561,Yıldırım Beyazıt,38.370832452718,27.1210125558459
12820,Mevlana Cami,38.3694,27.1243
12721,Aktepe Cami,38.3555084239443,27.1286305383902
12723,Demirkıran,38.3540004216334,27.1307005319429
12881,Gaziemir Belediyesi,38.3225003365559,27.1293005245524
12891,Gaziemir Trafo,38.319044,27.128586
13003,Mimar Kemalettin Anadolu Lisesi,38.3042002747629,27.1596004259221
12961,Karakol,38.3034,27.1628
30015,Bornova Metro,38.4588090501735,27.2141920861203
50833,Çeşmealtı Lojmanları,38.3998,26.7524
50830,Balıkçı Barınağı,38.399098,26.746698
50829,Çeşmealtı,38.3958,26.7487
20978,Büyük Çiğli Anadolu Lisesi,38.4983004639842,27.0625004674178
21026,Yoldaş,38.518,27.0655
21024,Çiğli İzkent,38.5174,27.0667
14672,Yeniköy Cami,38.1947,27.8897
14670,Şirinköy,38.180814,27.874824
14668,İlkkurşun,38.173358,27.866591
14666,Gökçen,38.1712476596638,27.8588567450072
15150,Doyranlı Lale Bahçesi,38.1653042999639,27.8145117639475
15148,Doyranlı Fidanlık,38.1609051836946,27.8055909936026
14662,Derebaşı Zeytin,38.1549860281714,27.7910955784233
14660,Derebaşı,38.1547720231176,27.7849385346751
14656,Frezya,38.1542890139619,27.7700994295431
14654,Kasımpatı,38.158474993678,27.7548450435348
14652,Zeybek,38.160325983647,27.7457309896553
14650,Pınarlı Cami,38.16092,27.742296
14646,Bayındır Leylak,38.163,27.7334
14644,Bayındır Meşe,38.164026,27.729105
12987,Sarnıç Çamlık,38.3014,27.1801
12989,Sanayi Caddesi,38.3042,27.1783
41223,Jandarma Komutanlığı,38.403532,27.203269
41354,İzmir Tınaztepe Üniversitesi Üst Giriş,38.4081936606331,27.1972601871397
40520,Devlet Malzeme Ofisi Çok Amaçlı Anadolu Lisesi,38.3954005806137,27.1737003161572
40518,Buca Spor Salonu,38.3944,27.1727
40153,Şirinyer İstasyonu,38.391723,27.147394
40198,Şirinyer Saha,38.389399,27.149115
21418,Menemen Üst Geçit,38.608924,27.075339
21416,Menemen Jandarma,38.6069,27.0764
23536,Menemen İzban,38.6032464462521,27.0777997345193
21697,İstasyon Köprü,38.6042804516169,27.0794797162651
21713,Menemen Devlet Hastanesi Kavşak,38.6077054700825,27.0851366549536
21699,Anadolu Lisesi,38.6096215058099,27.0945135808345
21703,Menemen İZSU,38.6119315463272,27.1048634972711
21709,Mermerci,38.61646,27.11529
21711,Fabrikalar,38.61696,27.12075
21727,Çileklik,38.6188006838387,27.1375432344541
21729,Yol,38.6204556991202,27.1411151983067
32311,Etap 1,38.4783407353289,27.1645760230341
32313,Köşe,38.4785737482362,27.1687630008545
31858,Başak,38.4661,27.2016
50081,Anıt,38.3785,26.8939
50405,Çamlı Papatya,38.3173,26.8599
50407,Çamlı Merkez,38.3145,26.8584
50439,Karakayalar,38.2153565739611,26.8278448788605
50441,Esentepe,38.211559,26.829193
11080,Payamlı Muhtarlık,38.0741271052351,26.9283213073866
20087,Çiğli Şaraphane,38.4985004505299,27.0573004957425
20089,Çiğli Santral,38.5009134422977,27.0543605011082
21497,Subay Lojmanları 4,38.5252,27.0344
21496,Subay Lojmanları 4,38.5254,27.0343
21321,Tekel Lojmanlar,38.5184,27.0336
20092,Küçük Çiğli,38.503133,27.052173
20090,Çiğli Santral,38.5004454426392,27.0544375028628
20088,Çiğli Şaraphane,38.4986564488442,27.0566584986389
20338,Mavişehir,38.4749,27.0745
20336,Haydar Aliyev Parkı,38.4727005141374,27.0836004650073
11510,Tepeköy Aktarma,38.147784,27.361525
11564,Torbalı Belediyesi,38.150066,27.361869
16030,Mermer Fabrikası,38.1742340174664,27.3845202622935
11744,Ekoten,38.1745931070645,27.3710021387807
15716,Beton Santrali,38.1757150882346,27.3640172019924
10648,Torbalı Devlet Hastanesi,38.176774,27.358171
10852,Torbalı Ticaret Odası,38.1797411549956,27.3550201868406
15834,Torba Kent,38.182483,27.353978
10848,Çetineller Otel,38.1853,27.3529
10846,Çapak Yolu,38.1877552468106,27.3516871983363
10844,Temel,38.1912,27.3476
10842,Camel,38.1937,27.3458
10840,Reysaş,38.2051,27.3384
10838,Beşevler Çeşme,38.2076,27.3367
10836,Kuşçuburun,38.2125155275587,27.3332852105521
10834,Yüksek Kahve,38.2138,27.3314
21155,Kutup Yıldızı,38.4947,27.002
12363,Şehit Halit Taş Ortaokulu,38.3958,27.1012
12217,Yıkık Cami,38.375302,27.107653
12219,Eski İzmir Karakolu,38.3725154432431,27.107264606106
22624,Fidelya,38.497867,27.094536
22626,Ortanca,38.497142,27.095414
20720,Yamaç Parkı,38.487922,27.099657
20052,Çevre ve Şehircilik İl Müdürlüğü,38.4588723166545,27.1671545367302
15606,Halkapınar 2,38.4353536668541,27.1680032056598
20683,Mürşide Altınçubuk İlköğretim Okulu,38.4828,27.0968
20701,Fırın,38.4834,27.0985
50379,Seferihisar Kavşak,38.3743,26.8754
51239,Fidanlık,38.3706,26.8743
51237,Tekne Atölyesi,38.369567,26.868486
51241,Bahçe Arası,38.3646,26.8649
51800,Çeşme Uğur Mumcu Parkı,38.326911,26.311916
51798,Çeşme Kültür Merkezi,38.328254,26.31547
51796,Çeşme Üstgeçit,38.3279,26.3188
51794,Çeşme Sanayi Sitesi,38.326536,26.321904
51748,Barbaros Yol ayrımı,38.306391,26.581511
51740,İYTE Giriş,38.313717,26.637508
13909,Orhanlı Meydan,38.167568,26.953034
13619,Orhanlı Muhtarlık,38.166204,26.951423
13575,Zambak,38.1642,26.949
10949,Dereköy Yol Ayrımı,38.2521458176161,27.1248441951353
10969,Develi Yolu,38.203782,27.157742
10749,Develi Çıkış,38.199938,27.162943
11116,Ataköy Çiftlik,38.099,27.164
10985,Ataköy Giriş,38.0967,27.1658
11247,Kınalıtaş,38.0363,27.1931
11113,Ahmet Beyli Çiftlik,38.0334,27.1903
11011,Yalçındağ,37.988895,27.18282
11013,Maydanoz,37.9913,27.1763
11829,Özdere Belediye Garajı,38.0144,27.1237
11843,Cumhuriyet Sanayi,38.014,27.1205
15568,Arıtma,38.0385154598712,27.0657917355407
11045,Turizm Okulu,38.0408,27.0631
22174,Egekent Aktarma Merkezi,38.5074950937689,27.0463886850242
22085,Evka 5 Toki Evleri 1,38.5211,27.0593
21074,Yıldız Tınas İzmiroğlu Anadolu Lisesi,38.5175834191559,27.0483484538841
20493,Soğukkuyu Atölye,38.4732,27.1214
20495,Dostluk,38.4741006173367,27.1244002471648
20497,Kadızade Zühtü Işıl,38.4739,27.1277
20499,Bakkal,38.474,27.1289
20501,Anadolu Cami,38.475,27.137
22576,Maltepe Sevgi,38.631138,26.918213
22574,Maltepe Cami,38.630107,26.914529
21807,Maltepe Köşe,38.62988,26.912733
21778,Gerenköy Son Durak,38.6496997667837,26.9048735116256
21721,Gerenköy Bahçe,38.66067,26.90198
21803,Gerenköy Çeşme,38.6623,26.90251
22289,Yeniköy Türktelekom,38.68678,26.90073
21929,Yeniköy,38.690267,26.90027
23695,Doğakan Güngör Parkı,38.4709565526284,27.0999213870035
23262,Akkoç,38.5817201205389,26.9714095593884
21580,Günerli Dörtyol,38.570696,26.996259
21575,Hobi Park,38.56339,27.0047
23261,Akkoç,38.5818601200737,26.9713395589439
23282,İğnedere Giriş,38.6554437686079,27.1610747787872
22389,İğnedere Meydan,38.656282,27.159556
23281,İğnedere Giriş,38.655231768575,27.1610297808882
50619,Söğüt,38.332293,26.762088
50621,Özbek Yolu,38.3271553591748,26.7461993240741
50623,Çiftlik,38.3252,26.7344
51743,Tepe Kahve,38.3080833565413,26.590498379234
51751,Zeytinler Köyü,38.2905,26.5599
50751,Zeytinyağı Müzesi,38.2896434170168,26.5559479655908
51761,Germiyan,38.301188,26.480844
22423,Siesta Konutları Yolu,38.4867495336107,27.0895373721463
20853,Mustafa Kemal Mahallesi Muhtarlığı,38.4943005553457,27.0968002968894
20681,Cumhuriyet Mahallesi Üçyol,38.4813819944968,27.0961856769692
31279,Rektörlük,38.4625440499977,27.2192093347453
31285,Suphi Koyuncu,38.4632,27.2241
15257,Tire Toplu Konutlar,38.0975429058214,27.7226744416177
15259,Tire Anadolu İmam Hatip Lisesi,38.096403,27.725197
15261,Tire Park,38.094854,27.727481
15263,Tire İstasyon,38.0931301783641,27.7290321850266
15265,Tire Meydan,38.0892,27.7316
15267,Tire Stadı,38.0905,27.7348
15269,Tire Sanatkarlar,38.0917,27.7383
15271,Tire Zümrüt,38.092873,27.741973
15273,Tire Terminal,38.093491,27.743901
15737,Tire Mezarlık,38.0938904910387,27.746853805964
15441,Dağkızılca  Yol Ayrımı,38.3124434243378,27.3879110977439
13834,Dağkızılca,38.309536400232,27.3893891088227
13830,Dağkızılca Papatya,38.3074,27.3895
13828,Dağkızılca Lale,38.305778,27.390709
13826,Dağkızılca Zeytin,38.30428,27.391739
14024,Seyit Onbaşı,38.301086,27.393633
14022,Nene Hatun,38.297974,27.394189
15875,Karaçam,38.2952540551488,27.3960202425734
13993,Şehit Şerife Bacı,38.291496,27.396936
13808,Çakırbeyli Yol Ayrımı,38.281341,27.397776
13990,Çakırbeyli Mezarlık,38.2818930024943,27.3912740054204
12520,Selvi,38.3777,27.1
12519,İkinci Trafo,38.3814141590957,27.0975826205432
10290,Denizmen,38.3936,27.0806
10280,Hıfzıssıhha,38.3929,27.0862
12423,Nevvar Salih İşgören Anadolu Lisesi,38.3904004539188,27.0898006588129
13251,Fatih Sultan Mehmet Teknik ve Endüstri Meslek Lisesi,38.3509783888221,27.0840496948424
13249,Yavuz Selim İlkokulu,38.3520263911497,27.0851966911949
13259,Nergiz,38.3541,27.0849
20041,Çınarlı Hastanesi,38.4418,27.1728
20442,Gümüşpala Dört Yol,38.4694225312289,27.1316343418567
20432,Gümüşpala Çamlık,38.470035,27.12601
30165,Bulvar,38.4276007495868,27.2110000558027
30324,Bornova Kültür Merkezi,38.4634585642061,27.2117436769111
30322,Bornova Stadı,38.4617,27.2055
23767,Kınık Kız Yurdu,39.0928951330899,27.3922390696465
23365,Kınık Mesleki ve Teknik Anadolu Lisesi,39.0945611384203,27.3937290563316
23408,İsmet İnönü Parkı,39.0884770891063,27.385716128162
23153,Kınık Kaymakamlık,39.0874,27.3804
23280,Kozbeyli At Çifliği,38.7041505906528,26.898870098359
21924,Yeniköy Küme evleri,38.698416,26.900396
22560,Maltepe Üçyol,38.637716,26.916994
21792,Maltepe Köprü,38.631216,26.915879
23217,Kesik Fabrikalar,38.618858,26.995398
23680,Kantar,38.6340821450662,27.0101289414565
23244,Çavuş Köy Üçyol,38.634796,27.026202
23242,Çavuş Köy Cami,38.636898,27.02395
51243,Öz Zümrütevleri Giriş,38.3653,26.8618
51245,Orkide,38.3669,26.8615
51792,Çeşme Devlet Hastanesi,38.3205083015003,26.3299720838656
13577,Maviçiçek,38.1624,26.9446
21050,Münevver Öğretmen Ortaokulu,38.5123384803071,27.0513530073547
20503,Yunus,38.4757,27.1395
20455,Gümüşpala Su Deposu,38.476539,27.140546
20520,Nafiz Gürman Muhtarlık,38.4775106272593,27.1396986560903
22572,Maltepe Cumhuriyet,38.629129,26.913087
22384,Görece Meydan,38.649728,27.164271
51753,Uzunkuyu,38.2888994530887,26.5526732079468
31295,Hükümet Konağı,38.466791,27.219633
31299,Malazgirt İlköğretim Okulu,38.47074,27.22008
15738,Kır Düğün Salonu,38.0934814682989,27.7509108492698
15741,Tire Küçük Sanayi Sitesi,38.0922094186197,27.7562999131473
15743,Tire Küçük Sanayi Sitesi-2,38.091797391164,27.7619219730661
15745,Urgancı,38.092225388776,27.7668090188446
15747,Boynuyoğun Yağ Fabrikası,38.0927163858501,27.7726610738834
15749,Hilal,38.0931213854982,27.7768801131289
15830,Çukuryer,38.0934023845498,27.7801421437682
15752,Boynuyoğun Dörtyol,38.0938193868873,27.7836651758047
15754,Boynuyoğun Pazaryeri,38.0942473900152,27.7870932067365
13988,Çakırbeylı Gündoğumu,38.2818957090985,27.3866862923567
13806,Çakırbeyli Çıkış,38.283588,27.383088
13824,Çakırbeyli,38.2839,27.3816
13804,Çakırbeyli Sağlık Ocağı,38.2851234689414,27.3790619551405
13802,Çakırbeyli Giriş,38.284938,27.374296
15598,Çakırbeyli Viraj,38.2844161609957,27.3715761994211
15596,Bozköy Köşe,38.2814661339198,27.3700462070299
13810,Bozköy Gelincik,38.277531597607,27.3661457160977
13812,Bozköy Nar,38.2746000709463,27.3635002220119
12514,Kardeşler,38.382864,27.10049
12425,Metin Oktay Mahallesi Muhtarlığı,38.389107,27.093932
13261,Leylak,38.355,27.086
23149,Kınık Ulu Cami,39.0899009064776,27.3705942584982
23151,Kınık Sanayi,39.0871,27.3761
10504,Fahrettin Altay,38.3872,27.073
50007,Fahrettin Altay Meydan 2,38.3975247092848,27.0686896157784
50207,Başak,38.4095004053538,27.0363008766824
50209,İnciraltı,38.4115,27.0336
21839,Gerenköy Dörtyol,38.6763775010979,26.9046124170964
23605,Kocamehmetler Yol Ayrımı,38.67900349574,26.8378057131747
23416,Fevzi Çakmak,38.6809824839468,26.8356257104268
23411,Sadullah Sever,38.6897614492772,26.8328406521011
23412,Sadullah Sever Kümesi,38.6848884670411,26.8337986885182
21842,Bağarası Giriş,38.6709,26.8872
23664,Güneş Panelleri,38.6731989811162,26.8943564014621
21724,Yumurtacı,38.67392,26.896656
23673,Başak,38.6002294837402,27.0866007007533
23675,Uğur Mumcu Muhtarlık,38.6011754631546,27.0815737256919
21657,Koyundere Mezarlık,38.567761,27.069995
21655,Gazi Toki Yol Ayrımı,38.565066454637,27.0700900467676
21407,Asarlık Giriş,38.5827330482219,27.0704919999296
21409,Haldun Koşay Lisesi,38.5869840078063,27.0730839835525
21417,Menemen Jandarma,38.6069,27.0767
21419,Menemen Üst Geçit,38.6085,27.07585
12203,Zincirlikuyu,38.3912,27.1245
21351,Harmandalı Mezarlık,38.537583,27.051776
21318,Şehit Üsteğmen İbrahim Fahri Efendi,38.537871,27.056307
11319,Egekent 4,38.24626,27.27519
10824,Oğlananası,38.2631380300147,27.2454932469471
20061,Öztürk,38.4683226030761,27.1210052904561
20063,Soğukkuyu Trafik,38.4675,27.1174
20095,Balatçık Kahveler,38.5121,27.0454
20097,Eski Sinema,38.515859,27.042617
21343,Jandarma,38.5185845962006,27.0405869586849
10655,Emrez,38.3555,27.134
10657,Aktepe,38.3518,27.1334
13005,Sarnıç Dere,38.3098002958476,27.1535004471476
21867,Ekiz,38.68715,26.94378
21821,Alan Çiftliği,38.6871897651819,26.9378599904824
21723,Yumurtacı,38.67441,26.89788
21847,Malaçay,38.66163,26.86578
21865,Arpa Deresi,38.6587255602154,26.8387558767036
23734,Foça Devlet Hastanesi,38.6590553878937,26.7664293567244
21883,Esnaf Sanatkarlar Odası,38.6676423425989,26.7581743379918
21884,Esnaf Sanatkarlar Odası,38.6674683424949,26.7578713415416
23722,Spor Salonu,38.6663883436693,26.756827357973
23733,Foça Devlet Hastanesi,38.6589653879607,26.7663303581555
21872,Foçaköy,38.657342,26.817691
21856,Bağarası Atatürk Parkı,38.659474,26.848174
21854,Bağarası İlköğretim Okulu,38.65923,26.85121
21870,Mehmetçik Parkı,38.662971,26.868603
21846,Bağarası Küçük Sanayi,38.6671150426019,26.8777088329508
21488,Kule,38.6872683845838,26.9278737558763
21864,Hilal,38.685849,26.947283
21862,Selvi,38.68462,26.95328
21812,Fatih,38.6800699133247,26.9752378052048
23354,Kanal,38.6792929288218,26.978988787018
21776,Bahçe,38.6774950386105,27.0072686160177
21920,Helvacı Çıkış,38.69139,27.0036
50169,Gümüş,38.3854,27.0554
50171,Çifte Selviler,38.3863,27.0528
50173,Salih Dede Anadolu Lisesi,38.3872325784306,27.0483160041204
50175,Teleferik,38.387616,27.042901
50177,Turem,38.3875,27.0409
50197,Termal,38.3895,27.038
50199,Korutürk,38.3933618946214,27.038131795829
10228,Koruluk,38.412691,27.131779
10226,Kestelli,38.415294,27.134829
10224,Mezarlıkbaşı,38.4207,27.1372
10321,Kent Müzesi,38.4248,27.1385
10330,Montrö,38.4287551138671,27.1415429407465
10554,Vasıf Çınar,38.4302163394397,27.1407603953991
10106,Dokuz Eylül Rektörlük,38.4305,27.1359
10104,Sosyal Sigortalar Kurumu,38.4252,27.1324
10016,Bahribaba,38.4148,27.1276
10117,Hisarönü,38.4224,27.1323
10112,Halit Ziya,38.4261022304167,27.1350187376018
10322,Kent Müzesi,38.4262805864553,27.1395457199318
10215,Çankaya,38.4232,27.1375
10227,Mezarlıkbaşı,38.420898,27.136995
12878,Büyükşehir Kurs Merkezi,38.3251,27.1359
14334,Hacı Bayram Cami,38.3266843501488,27.1393395001954
13162,Esbaş Otopark,38.335624,27.135535
10660,Ege Serbest Bölge,38.3372003790339,27.1340005213481
10653,Gaziemir Semt Garajı,38.3570434322381,27.1347895169081
13301,Sarnıç Aktarma Merkezi,38.3131923080789,27.1446234729634
21153,Çiğli Fen Lisesi,38.495246200501,26.9454471651071
21154,Neşeli,38.492946,26.946403
21278,Manolya,38.4931,26.95053
21150,Çakabey,38.492,26.9584
23607,Tarım Geliştirme Merkezi,38.493465,26.968927
21215,Bankalar,38.492,27.0367
21217,Elektral,38.4883004030239,27.0365006577324
21219,Ekspres,38.4867,27.0365
21104,Aktaş Sanayi,38.4755104228599,27.0435706691331
21102,Nemak Döküm,38.47506,27.04671
20340,Karya,38.4762635752471,27.0667196404245
20366,Flamingo Sitesi 2,38.4723,27.0708
20362,Martı,38.4708,27.0671
20360,Albatros,38.4682,27.0691
20352,Spor Merkezi,38.4682,27.081
20196,Beşikçioğlu Cami,38.4631,27.0844
20172,Bostanlı İskele,38.4542875357174,27.097643464449
23600,Karşıyaka İskele,38.4556425939489,27.1226933354165
21333,Erenler,38.5224,27.045
21652,Asarlık Toki Evleri,38.5833513308248,27.0917387565766
21650,Fatma Koşay İlköğretim Okulu,38.58406,27.08883
21628,Koyundere Kahveler,38.57454,27.06745
21626,Koyundere Eski Son Durak,38.576649,27.064099
12957,Sarnıç Köprüsü,38.311978303868,27.147293464823
14265,İstiklal,38.2993,27.1812
10802,Ayrancılar Mezarlık,38.2403,27.2759
10800,Egekent 4 Kavşak,38.2422,27.2736
23671,Kazım Karabekir Cami,38.5962724575844,27.0787857788439
23753,Zambak,38.597601451435,27.0775397771497
23755,Park,38.5973554460259,27.0760497883418
23752,Zambak,38.5975834511834,27.0774687777284
50212,İnciraltı Yurdu,38.4128,27.0308
50211,İnciraltı Park,38.412908,27.030745
23663,Güneş Panelleri,38.6731986681735,26.8938783947126
23413,Sadullah Sever Kümesi,38.6847364679584,26.8339696887253
23414,Fevzi Çakmak,38.6811454827956,26.8353767106499
21838,Gerenköy Dörtyol,38.675547,26.904538
23677,Menemen Cumhuriyet Ortaokulu,38.600481454777,27.0792167456866
23669,Uğur Mumcu,38.598501,27.077648
23267,Şehit Pilot Albay Gökselin Saylan,38.5643244495214,27.0684170618265
23542,Asarlık Polis Merkezi,38.5882534562965,27.0762958514919
23758,Menemen Gençlik Eğitim,38.5858064691128,27.0791248509262
22371,Menemen Garaj Karşısı,38.6109,27.071607
21325,Yörük,38.5398,27.0567
10788,Mersinli Kahve Cami,38.2659540986399,27.2429675048966
21381,Subay Lojmanları,38.5249,27.0326
13302,Sarnıç Aktarma Merkezi,38.3133573086231,27.144571473298
21849,Bağarası Mavi,38.66012,26.86152
21507,Şair Namık Kemal,38.6582269837871,26.8275106589818
21885,Kuşburnu,38.6625083668658,26.7618253581133
21882,Yeldeğirmenleri,38.67024,26.75832
23736,Foça Belediye Yerleşkesi,38.6537524095852,26.7686773862891
21508,Şair Namık Kemal,38.6581025336342,26.8270446617797
21840,Gerenköy Dörtyol,38.676394692145,26.9050322951887
21832,Güven,38.68722,26.93348
23517,Yayla Mevkii,38.6774420491057,27.0099595987417
21918,Helvacı Hayratı,38.69463,27.00917
12943,Sosyal Konutlar,38.3053002831879,27.1386004760653
12948,Özcan Sitesi,38.3073,27.1387
12946,Gaziemir İMKB Mesleki ve Teknik Anadolu Lisesi,38.3093002958217,27.1405004778843
12944,Şehit Polis Ahmet Atilla Güneş İlkokulu,38.311805,27.140609
12940,Şehit Üsteğmen Hakan Özkaner,38.313165,27.139003
12942,Birinci Nizamiye,38.313,27.1361
12890,İkinci Nizamiye,38.3131,27.1338
12876,Halil Tan Parkı,38.3155,27.1319
10247,Bayramyeri,38.4088,27.1267
10251,Altıntaş,38.4073,27.1241
10613,Üçyol Sevgi Yolu Parkı,38.4049845201492,27.1221704975702
10615,İller Bankası,38.4002,27.1272
10625,Hasan Hüseyinler,38.392116,27.134438
10629,Orcaner,38.3868595021323,27.1344244842392
12882,Gaziemir Belediyesi,38.3227,27.13
13234,Dokuz Eylül,38.3157,27.1464
13004,Açelya,38.308157,27.157683
13010,Gaziemir Belediye Şantiye,38.309446,27.163756
12996,Gazeteler,38.309526,27.17096
12994,Karaçam,38.30974,27.173688
12990,Sanayi Caddesi,38.3044,27.1781
12988,Sarnıç Çamlık,38.3015,27.1799
12986,Sarnıç Eski Son durak,38.2996,27.1808
12983,Muhtarlık,38.2986,27.1783
12979,Bisikletçi,38.2981,27.1729
12973,Sardunya,38.2936,27.1717
21276,Çiçek,38.49398,26.95146
21274,Sasalı Meydan,38.4944404313397,26.9524322510968
21148,Ana Jet Üssü,38.495,26.9804
21221,Metro,38.4843,27.0364
20384,Süleyman Demirel Lisesi,38.4738,27.0738
20368,Flamingo Sitesi,38.4723,27.0731
20358,Kuğu,38.4694,27.0722
20356,Mavişehir Dört Yol,38.4694,27.0764
20185,Yıllar,38.4526,27.1022
20353,Spor Merkezi,38.4683,27.0812
21335,Uğur Mumcu,38.5254504082046,27.0461054259369
21648,Koyundereli Hacı Mehmet Camii,38.5824404949163,27.0852798360286
21402,Koyundere,38.5741004129892,27.0603000478799
14267,Hürriyet,38.2977,27.1827
23754,Park,38.5973214456257,27.0759347893136
23672,Kazım Karabekir Cami,38.5961764575889,27.0787607796918
50210,Deniz Müzesi,38.412418,27.032231
13341,Kemer Aktarma Merkezi,38.42157,27.15685
30411,Tekstilciler Çarşısı,38.4197,27.1878
30419,Levent Kara Sağlık Ocağı,38.417327,27.18893
20673,Daryol,38.495,27.1136
21999,İsmail Cem Kültür Merkezi,38.4962,27.112
22001,Müyesser Turfan Güçsüzler Evi,38.4961,27.1066
21392,Ulukent Gar,38.5465,27.0351
23725,Menemen İmam-Hatip Ortaokulu,38.5489114119117,27.0530952512021
21546,Santral,38.550151,27.052778
22513,Gazi Mah  Toki Evleri,38.562124,27.065755
23662,Sürgün Abidesi,38.5628874453798,27.0668540806562
23256,Egekent 2 Koruluk,38.5557059483249,27.0568081450926
21541,Manzara,38.5537594158065,27.0555822067204
50367,Asır,38.3644,26.8805
50018,Hoca,38.39406,27.04249
50993,Demircili ,38.2287272028903,26.6876737714696
50992,Çamlıtepe,38.2311006859606,26.6907018398348
50990,Yağcılar yol ayrımı,38.2354,26.6929
50988,Çınar,38.2413,26.7007
50986,Titus,38.2426,26.7033
50984,Yörük,38.2442,26.7093
50982,Altınköy Sitesi,38.246972,26.710357
50980,Altınköy yolu,38.2489,26.7136
50978,Ulu Çam,38.2570893823431,26.7149011725782
50976,Zambak,38.266,26.7246
50974,Kuşçular Orman Yangın Ekibi,38.2681,26.73
21993,İsmail Rahmi Karadavut İlkokulu,38.4895068752919,27.0629040251227
23316,Piril,38.4969724005478,27.0370746173705
23315,Lider,38.4999113993998,27.037198603543
23762,Tekel Ortaokulu,38.5223018949157,27.0313596103237
21328,Katip Çelebi Üniversitesi,38.517526,27.031298
23285,Kaklıç muhtarlık,38.5057362851953,26.9912328466339
21173,Kaklıç Köprü,38.506200278411,26.988500860942
21196,Çiğli Devlet Hastanesi,38.4971954842483,27.0487895241967
21194,Eyüp Sitesi,38.4944004340011,27.050300553822
21169,Tel Örgü,38.500316,26.990217
21171,Fabrika,38.5041,26.989
21258,Çiğli Ege Sanayi Sitesi,38.5164024179534,27.0350012232432
30858,Aşağı Kızılca Yol Ayrımı,38.4097127966789,27.5177247320449
30801,Armutlu Mezarlık,38.4083,27.5223
30863,Armutlu Sağlık Ocağı,38.4076,27.5248
30811,Şato,38.4126,27.5739
31799,Huzur,38.4106,27.5782
30813,Ören,38.4099678700715,27.5835805533029
30839,Durmuşlar,38.4159,27.645
30841,Sarılar,38.4173,27.6486
30786,Tokmakalan,38.4275,27.6661
30776,Benzinlik,38.4257,27.6634
30844,Değirmen,38.4222700035745,27.6605083651363
30818,Ahmallı,38.4097784866265,27.5976923318286
30866,Akçeşme,38.408524,27.593436
30800,Armutlu Mezarlık,38.4085,27.5223
30861,Aşağı Kızılca Yol Ayrımı,38.4096666599835,27.5178170638727
30782,Tropikal Sitesi,38.3949,27.49
30883,Villa,38.399865,27.487871
30882,Huzur,38.4031,27.4873
30762,Cumhuriyet,38.4272,27.4181
30760,Osmanlı Parkı,38.428,27.4156
11307,Yeni Bulgurca Son Durağı,38.211368,27.23026
11323,Zeytinlik,38.2094,27.2311
11321,Çiftlik,38.2067,27.2324
11280,Oğlananası Mezarlık,38.2417,27.2181
11283,Oğlananası Karaselvi,38.241587,27.221952
11264,Gölcükler Sera,38.261306,27.14687
14698,Muzaffer Gönen Parkı,38.225,27.9763
14925,Ödemiş Garaj,38.228018,27.978592
14937,Büyükavulcuk,38.2173,28.0118
14955,Yel Aldı,38.1789994340184,28.0697043159578
15003,Sarıtaş,38.1775468290576,28.0751904703657
15139,Kiraz Giriş,38.2191270004168,28.2074041178145
15142,Kiraz İlçe Tarım  Müdürlüğü,38.221489,28.205508
15461,Köfündere Çiftlik,38.1896565187687,28.1768818634921
14972,Ödemiş Cezaevi,38.1621990909987,28.1294052867825
14916,Kurucuova Benzinlik,38.1700026160814,28.0966499152322
14952,Türkönü,38.191599816477,28.0549038777873
14942,Yolüstü Kahveler,38.2104,28.0256
14940,Yolüstü Benzinlik,38.212178,28.019975
15486,Ödemiş Nikah Sarayı,38.2306827871218,27.9933285331362
14699,Kurtuluş,38.221886,27.973467
14702,Şeref Usta,38.220583,27.973214
20950,Güzeltepe Kahve,38.4937405508092,27.0704551455792
20912,Kemal Hadımlı Ortaokulu,38.5024624895202,27.0771761660065
20902,Köyiçi Mahallesi Muhtarlık,38.4950004665666,27.0633004782445
31482,Bornova Tenis Kulübü,38.4657,27.2398
22003,Elit Sitesi Yol Ayrımı,38.4955,27.1044
30815,Ören Belediye,38.4086,27.585
30817,Ören İlkokulu ,38.4083021151264,27.5894990105575
32299,Zeytin,38.4188136524805,27.6523347159444
30816,Ören İlkokulu ,38.4083021168856,27.5897990098417
30715,Aşağıkızılca Fabrika,38.407621,27.515943
30758,Sekiz Eylül İlkokulu ,38.4291014189142,27.4119993069421
10779,Gişeler,38.2768,27.2156
11285,Oğlananası Yeni Cami,38.240434,27.22361
20083,Eğitim Gönüllüleri,38.49,27.0689
20909,Güzeltepe Muhtarlık,38.501,27.0726
20944,Güzeltepe İlkokulu,38.4966004871339,27.0713004262126
21330,Meydan Yolu Jandarma,38.5196,27.0401
20082,Çiğli İtfaiye,38.4882,27.0726
20021,Bostanlı İskele,38.453435,27.0974
20081,Çiğli İtfaiye,38.4885,27.0722
21329,Meydan Yolu Jandarma,38.520113397909,27.0411384831278
21375,Harmandalı Eski Belediye,38.5349,27.0499
21317,Şehit Üsteğmen İbrahim Fahri Efendi,38.537916,27.056072
21372,Harmandalı,38.537627,27.054363
10782,Barbaros,38.2502940968812,27.1303893172516
10952,Dereköy Yolu,38.24932,27.1265
13335,Dereköy Kavşak,38.248815,27.124359
13333,İncir Fabrikası,38.248715,27.121609
13917,Akçaköy  İncir Fabrikası,38.255705,27.104031
13919,Akçaköy,38.2569813170972,27.1018527903888
13918,Akçaköy  İncir Fabrikası,38.25578,27.103843
13495,Merkez Sokak,38.2474,27.1104
13921,Ilgın,38.244713,27.10498
12629,Bahar Yıldırım İlkokulu,38.3783004775701,27.1295005160407
12633,2 Nolu Çağdaş Kahraman Sağlık Ocağı,38.3790004766288,27.1273005234038
10177,Hava Hastanesi,38.3982,27.0732
12472,Güzel İzmir Cami,38.3641,27.0908
10038,Konak,38.415688,27.126432
20205,Geçit 1,38.4589,27.1076
22037,Körfez Evleri Giriş,38.4888,27.1342
22039,Körfez Koru Evleri,38.489600662633,27.1355001135898
22036,Körfez Mahallesi,38.4871006516368,27.1325001421743
20488,Zihni Üstün İlkokulu,38.48101,27.114532
30289,Smyrna,38.461,27.1728
30991,Adil Çakmak,38.4668,27.1659
31047,Alparslan Mahallesi Muhtarlık,38.4698,27.1668
31049,PTT Santral,38.4701,27.1649
31067,Birkent,38.4731,27.1587
31079,Sağlık Ocağı,38.4765,27.1596
31081,Yasemin,38.4766,27.1637
20135,Bayraklı Üst Geçit,38.4641,27.1631
20058,Bayraklı Çamlık,38.4676007049387,27.1597001014175
20056,Bayraklı Park,38.4646,27.1635
20054,Bayraklı İstasyon,38.463,27.1647
20050,Körfez,38.4564217098186,27.16847611251
30721,Oya,38.4505,27.3081
30725,Dostlar,38.4492,27.3119
32203,Kavaklıdere Çıkış,38.451604181819,27.3206134750711
30734,İncir,38.4497,27.3181
30082,Beşinci Sanayi Giriş,38.443714,27.283494
30054,Mezarlık,38.4426,27.2779
30034,Mimar Sinan Mesleki ve Teknik Anadolu Lisesi,38.4256007370745,27.2083000754726
30032,Şehitler Ortaokulu,38.4257,27.2038
13348,Kemer Aktarma Merkezi,38.4217912711507,27.1564417903111
30588,Görme Engelliler Okulu,38.45025,27.221617
30591,Hasan Tahsin Özel Eğitim Okulu,38.45037,27.22304
30595,Adliye Lojmanları,38.4506,27.2301
30611,Hasanağa Camii,38.4479,27.2336
30603,Mevlana Mahallesi Cami,38.4503,27.2385
30607,Elif,38.4513,27.2443
30613,Aktar,38.4514,27.2464
30627,Papatya,38.451361934245,27.2499407721763
